{
  "nodes": [
    {
      "id": "NSR:Quay:1173",
      "stopPlaceId": "NSR:Quay:1173",
      "name": "Oslo lufthavn",
      "lat": 60.19422,
      "lon": 11.099609,
      "modes": [
        "unknown"
      ],
      "stopType": "unknown"
    },
    {
      "id": "NSR:Quay:26169",
      "stopPlaceId": "NSR:Quay:26169",
      "name": "Sundvollen sentrum",
      "lat": 60.062,
      "lon": 10.309736,
      "modes": [
        "bus"
      ],
      "stopType": "bus"
    },
    {
      "id": "NSR:Quay:26153",
      "stopPlaceId": "NSR:Quay:26153",
      "name": "Kroksund",
      "lat": 60.066087,
      "lon": 10.297885,
      "modes": [
        "bus"
      ],
      "stopType": "bus"
    },
    {
      "id": "NSR:Quay:26147",
      "stopPlaceId": "NSR:Quay:26147",
      "name": "Paddevika",
      "lat": 60.0745,
      "lon": 10.3005,
      "modes": [
        "bus"
      ],
      "stopType": "bus"
    },
    {
      "id": "NSR:Quay:26140",
      "stopPlaceId": "NSR:Quay:26140",
      "name": "Vik E16",
      "lat": 60.07788,
      "lon": 10.287076,
      "modes": [
        "bus",
        "coach service"
      ],
      "stopType": "multimodal"
    },
    {
      "id": "NSR:Quay:26116",
      "stopPlaceId": "NSR:Quay:26116",
      "name": "Steinsåsen E16",
      "lat": 60.089615,
      "lon": 10.2892,
      "modes": [
        "bus",
        "coach service"
      ],
      "stopType": "multimodal"
    },
    {
      "id": "NSR:Quay:26103",
      "stopPlaceId": "NSR:Quay:26103",
      "name": "Høyenhall E16",
      "lat": 60.095303,
      "lon": 10.292684,
      "modes": [
        "bus"
      ],
      "stopType": "bus"
    },
    {
      "id": "NSR:Quay:26095",
      "stopPlaceId": "NSR:Quay:26095",
      "name": "Steinsalléen",
      "lat": 60.1002,
      "lon": 10.2902,
      "modes": [
        "bus"
      ],
      "stopType": "bus"
    },
    {
      "id": "NSR:Quay:26090",
      "stopPlaceId": "NSR:Quay:26090",
      "name": "Vollgata",
      "lat": 60.110348,
      "lon": 10.285452,
      "modes": [
        "bus"
      ],
      "stopType": "bus"
    },
    {
      "id": "NSR:Quay:26083",
      "stopPlaceId": "NSR:Quay:26083",
      "name": "Sonerud",
      "lat": 60.11565,
      "lon": 10.282925,
      "modes": [
        "bus"
      ],
      "stopType": "bus"
    },
    {
      "id": "NSR:Quay:29678",
      "stopPlaceId": "NSR:Quay:29678",
      "name": "Gihle",
      "lat": 60.1242,
      "lon": 10.2802,
      "modes": [
        "bus"
      ],
      "stopType": "bus"
    },
    {
      "id": "NSR:Quay:29673",
      "stopPlaceId": "NSR:Quay:29673",
      "name": "Botilrud",
      "lat": 60.130007,
      "lon": 10.275191,
      "modes": [
        "bus"
      ],
      "stopType": "bus"
    },
    {
      "id": "NSR:Quay:29668",
      "stopPlaceId": "NSR:Quay:29668",
      "name": "Hønensvingen E16",
      "lat": 60.1353,
      "lon": 10.273,
      "modes": [
        "bus"
      ],
      "stopType": "bus"
    },
    {
      "id": "NSR:Quay:29664",
      "stopPlaceId": "NSR:Quay:29664",
      "name": "Tanberg",
      "lat": 60.1374,
      "lon": 10.2683,
      "modes": [
        "bus"
      ],
      "stopType": "bus"
    },
    {
      "id": "NSR:Quay:29661",
      "stopPlaceId": "NSR:Quay:29661",
      "name": "Trøgstad",
      "lat": 60.1423,
      "lon": 10.2619,
      "modes": [
        "bus"
      ],
      "stopType": "bus"
    },
    {
      "id": "NSR:Quay:29657",
      "stopPlaceId": "NSR:Quay:29657",
      "name": "Ringerike sykehus E16",
      "lat": 60.148417,
      "lon": 10.252036,
      "modes": [
        "bus",
        "coach service"
      ],
      "stopType": "multimodal"
    },
    {
      "id": "NSR:Quay:29651",
      "stopPlaceId": "NSR:Quay:29651",
      "name": "Dalsbråten",
      "lat": 60.153,
      "lon": 10.2577,
      "modes": [
        "bus"
      ],
      "stopType": "bus"
    },
    {
      "id": "NSR:Quay:29648",
      "stopPlaceId": "NSR:Quay:29648",
      "name": "Eikli",
      "lat": 60.15957,
      "lon": 10.25696,
      "modes": [
        "bus"
      ],
      "stopType": "bus"
    },
    {
      "id": "NSR:Quay:100608",
      "stopPlaceId": "NSR:Quay:100608",
      "name": "Hønefoss sentrum",
      "lat": 60.165976,
      "lon": 10.257103,
      "modes": [
        "bus"
      ],
      "stopType": "bus"
    },
    {
      "id": "NSR:Quay:30185",
      "stopPlaceId": "NSR:Quay:30185",
      "name": "Riddergården",
      "lat": 60.17037,
      "lon": 10.26014,
      "modes": [
        "bus"
      ],
      "stopType": "bus"
    },
    {
      "id": "NSR:Quay:26949",
      "stopPlaceId": "NSR:Quay:26949",
      "name": "Hvitbrua",
      "lat": 60.17139,
      "lon": 10.26258,
      "modes": [
        "bus"
      ],
      "stopType": "bus"
    },
    {
      "id": "NSR:Quay:26954",
      "stopPlaceId": "NSR:Quay:26954",
      "name": "Vesterntangen",
      "lat": 60.1685,
      "lon": 10.2687,
      "modes": [
        "bus"
      ],
      "stopType": "bus"
    },
    {
      "id": "NSR:Quay:26960",
      "stopPlaceId": "NSR:Quay:26960",
      "name": "Vestern",
      "lat": 60.1681,
      "lon": 10.28392,
      "modes": [
        "bus"
      ],
      "stopType": "bus"
    },
    {
      "id": "NSR:Quay:26966",
      "stopPlaceId": "NSR:Quay:26966",
      "name": "Sætranggata",
      "lat": 60.16564,
      "lon": 10.30432,
      "modes": [
        "bus"
      ],
      "stopType": "bus"
    },
    {
      "id": "NSR:Quay:26968",
      "stopPlaceId": "NSR:Quay:26968",
      "name": "Freitag",
      "lat": 60.16577,
      "lon": 10.31288,
      "modes": [
        "bus"
      ],
      "stopType": "bus"
    },
    {
      "id": "NSR:Quay:26976",
      "stopPlaceId": "NSR:Quay:26976",
      "name": "Nedre Klekken",
      "lat": 60.16656,
      "lon": 10.32013,
      "modes": [
        "bus"
      ],
      "stopType": "bus"
    },
    {
      "id": "NSR:Quay:27006",
      "stopPlaceId": "NSR:Quay:27006",
      "name": "Klækken Hotell",
      "lat": 60.16798,
      "lon": 10.3267,
      "modes": [
        "bus"
      ],
      "stopType": "bus"
    },
    {
      "id": "NSR:Quay:27020",
      "stopPlaceId": "NSR:Quay:27020",
      "name": "Smeden",
      "lat": 60.1768,
      "lon": 10.3451,
      "modes": [
        "bus"
      ],
      "stopType": "bus"
    },
    {
      "id": "NSR:Quay:27029",
      "stopPlaceId": "NSR:Quay:27029",
      "name": "Bølgen",
      "lat": 60.1806,
      "lon": 10.35302,
      "modes": [
        "bus"
      ],
      "stopType": "bus"
    },
    {
      "id": "NSR:Quay:27043",
      "stopPlaceId": "NSR:Quay:27043",
      "name": "Salem",
      "lat": 60.1909,
      "lon": 10.364,
      "modes": [
        "bus"
      ],
      "stopType": "bus"
    },
    {
      "id": "NSR:Quay:27048",
      "stopPlaceId": "NSR:Quay:27048",
      "name": "Vesetrud Åsbygda",
      "lat": 60.1932,
      "lon": 10.3644,
      "modes": [
        "bus"
      ],
      "stopType": "bus"
    },
    {
      "id": "NSR:Quay:27054",
      "stopPlaceId": "NSR:Quay:27054",
      "name": "Åstrud",
      "lat": 60.1983,
      "lon": 10.3655,
      "modes": [
        "bus"
      ],
      "stopType": "bus"
    },
    {
      "id": "NSR:Quay:27061",
      "stopPlaceId": "NSR:Quay:27061",
      "name": "Åsbygda skole",
      "lat": 60.20545,
      "lon": 10.36883,
      "modes": [
        "bus"
      ],
      "stopType": "bus"
    },
    {
      "id": "NSR:Quay:27066",
      "stopPlaceId": "NSR:Quay:27066",
      "name": "Åsbygda stadion",
      "lat": 60.20961,
      "lon": 10.36913,
      "modes": [
        "bus"
      ],
      "stopType": "bus"
    },
    {
      "id": "NSR:Quay:27073",
      "stopPlaceId": "NSR:Quay:27073",
      "name": "Håkenstugata",
      "lat": 60.21425,
      "lon": 10.37033,
      "modes": [
        "bus"
      ],
      "stopType": "bus"
    },
    {
      "id": "NSR:Quay:27077",
      "stopPlaceId": "NSR:Quay:27077",
      "name": "Kistefossveien",
      "lat": 60.21716,
      "lon": 10.37437,
      "modes": [
        "bus"
      ],
      "stopType": "bus"
    },
    {
      "id": "NSR:Quay:18475",
      "stopPlaceId": "NSR:Quay:18475",
      "name": "Kleggerud",
      "lat": 60.226204,
      "lon": 10.388852,
      "modes": [
        "bus"
      ],
      "stopType": "bus"
    },
    {
      "id": "NSR:Quay:18490",
      "stopPlaceId": "NSR:Quay:18490",
      "name": "Mo",
      "lat": 60.234211,
      "lon": 10.404168,
      "modes": [
        "bus"
      ],
      "stopType": "bus"
    },
    {
      "id": "NSR:Quay:18469",
      "stopPlaceId": "NSR:Quay:18469",
      "name": "Jevnaker rutebilstasjon",
      "lat": 60.239908,
      "lon": 10.385599,
      "modes": [
        "bus",
        "coach service"
      ],
      "stopType": "multimodal"
    },
    {
      "id": "NSR:Quay:18467",
      "stopPlaceId": "NSR:Quay:18467",
      "name": "Hadeland Glassverk",
      "lat": 60.238986,
      "lon": 10.398495,
      "modes": [
        "bus"
      ],
      "stopType": "bus"
    },
    {
      "id": "NSR:Quay:110521",
      "stopPlaceId": "NSR:Quay:110521",
      "name": "Oslo lufthavn",
      "lat": 60.193097,
      "lon": 11.09919,
      "modes": [
        "bus"
      ],
      "stopType": "bus"
    },
    {
      "id": "NSR:Quay:18468",
      "stopPlaceId": "NSR:Quay:18468",
      "name": "Hadeland Glassverk",
      "lat": 60.238829,
      "lon": 10.396757,
      "modes": [
        "bus"
      ],
      "stopType": "bus"
    },
    {
      "id": "NSR:Quay:18463",
      "stopPlaceId": "NSR:Quay:18463",
      "name": "Melkevegen Grønland",
      "lat": 60.237376,
      "lon": 10.40337,
      "modes": [
        "bus"
      ],
      "stopType": "bus"
    },
    {
      "id": "NSR:Quay:18489",
      "stopPlaceId": "NSR:Quay:18489",
      "name": "Mo",
      "lat": 60.23416,
      "lon": 10.403766,
      "modes": [
        "bus"
      ],
      "stopType": "bus"
    },
    {
      "id": "NSR:Quay:110323",
      "stopPlaceId": "NSR:Quay:110323",
      "name": "Kleggerud",
      "lat": 60.224187,
      "lon": 10.38601,
      "modes": [
        "bus"
      ],
      "stopType": "bus"
    },
    {
      "id": "NSR:Quay:110322",
      "stopPlaceId": "NSR:Quay:110322",
      "name": "Jevnakerdelet",
      "lat": 60.219941,
      "lon": 10.37947,
      "modes": [
        "bus"
      ],
      "stopType": "bus"
    },
    {
      "id": "NSR:Quay:27076",
      "stopPlaceId": "NSR:Quay:27076",
      "name": "Kistefossveien",
      "lat": 60.21688,
      "lon": 10.37354,
      "modes": [
        "bus"
      ],
      "stopType": "bus"
    },
    {
      "id": "NSR:Quay:27072",
      "stopPlaceId": "NSR:Quay:27072",
      "name": "Håkenstugata",
      "lat": 60.2141,
      "lon": 10.36993,
      "modes": [
        "bus"
      ],
      "stopType": "bus"
    },
    {
      "id": "NSR:Quay:27067",
      "stopPlaceId": "NSR:Quay:27067",
      "name": "Åsbygda stadion",
      "lat": 60.2076,
      "lon": 10.36725,
      "modes": [
        "bus"
      ],
      "stopType": "bus"
    },
    {
      "id": "NSR:Quay:27060",
      "stopPlaceId": "NSR:Quay:27060",
      "name": "Åsbygda skole",
      "lat": 60.20451,
      "lon": 10.36773,
      "modes": [
        "bus"
      ],
      "stopType": "bus"
    },
    {
      "id": "NSR:Quay:27049",
      "stopPlaceId": "NSR:Quay:27049",
      "name": "Vesetrud Åsbygda",
      "lat": 60.1932,
      "lon": 10.3641,
      "modes": [
        "bus"
      ],
      "stopType": "bus"
    },
    {
      "id": "NSR:Quay:27041",
      "stopPlaceId": "NSR:Quay:27041",
      "name": "Salem",
      "lat": 60.1901,
      "lon": 10.3636,
      "modes": [
        "bus"
      ],
      "stopType": "bus"
    },
    {
      "id": "NSR:Quay:27036",
      "stopPlaceId": "NSR:Quay:27036",
      "name": "Stigsrud",
      "lat": 60.183,
      "lon": 10.357,
      "modes": [
        "bus"
      ],
      "stopType": "bus"
    },
    {
      "id": "NSR:Quay:27030",
      "stopPlaceId": "NSR:Quay:27030",
      "name": "Bølgen",
      "lat": 60.18039,
      "lon": 10.35206,
      "modes": [
        "bus"
      ],
      "stopType": "bus"
    },
    {
      "id": "NSR:Quay:27021",
      "stopPlaceId": "NSR:Quay:27021",
      "name": "Smeden",
      "lat": 60.1768,
      "lon": 10.3449,
      "modes": [
        "bus"
      ],
      "stopType": "bus"
    },
    {
      "id": "NSR:Quay:27007",
      "stopPlaceId": "NSR:Quay:27007",
      "name": "Klækken Hotell",
      "lat": 60.16775,
      "lon": 10.32607,
      "modes": [
        "bus"
      ],
      "stopType": "bus"
    },
    {
      "id": "NSR:Quay:26977",
      "stopPlaceId": "NSR:Quay:26977",
      "name": "Nedre Klekken",
      "lat": 60.16673,
      "lon": 10.32033,
      "modes": [
        "bus"
      ],
      "stopType": "bus"
    },
    {
      "id": "NSR:Quay:26969",
      "stopPlaceId": "NSR:Quay:26969",
      "name": "Freitag",
      "lat": 60.16598,
      "lon": 10.31196,
      "modes": [
        "bus"
      ],
      "stopType": "bus"
    },
    {
      "id": "NSR:Quay:26967",
      "stopPlaceId": "NSR:Quay:26967",
      "name": "Sætranggata",
      "lat": 60.16571,
      "lon": 10.30197,
      "modes": [
        "bus"
      ],
      "stopType": "bus"
    },
    {
      "id": "NSR:Quay:26961",
      "stopPlaceId": "NSR:Quay:26961",
      "name": "Vestern",
      "lat": 60.1682,
      "lon": 10.28409,
      "modes": [
        "bus"
      ],
      "stopType": "bus"
    },
    {
      "id": "NSR:Quay:26953",
      "stopPlaceId": "NSR:Quay:26953",
      "name": "Vesterntangen",
      "lat": 60.1689,
      "lon": 10.2686,
      "modes": [
        "bus"
      ],
      "stopType": "bus"
    },
    {
      "id": "NSR:Quay:26948",
      "stopPlaceId": "NSR:Quay:26948",
      "name": "Hvitbrua",
      "lat": 60.1714,
      "lon": 10.262898,
      "modes": [
        "bus"
      ],
      "stopType": "bus"
    },
    {
      "id": "NSR:Quay:30182",
      "stopPlaceId": "NSR:Quay:30182",
      "name": "Nordre torg",
      "lat": 60.17047,
      "lon": 10.25847,
      "modes": [
        "bus"
      ],
      "stopType": "bus"
    },
    {
      "id": "NSR:Quay:29622",
      "stopPlaceId": "NSR:Quay:29622",
      "name": "Hønefoss sentrum",
      "lat": 60.16528,
      "lon": 10.257333,
      "modes": [
        "bus"
      ],
      "stopType": "bus"
    },
    {
      "id": "NSR:Quay:27306",
      "stopPlaceId": "NSR:Quay:27306",
      "name": "Storgata",
      "lat": 60.16231,
      "lon": 10.25738,
      "modes": [
        "bus"
      ],
      "stopType": "bus"
    },
    {
      "id": "NSR:Quay:29647",
      "stopPlaceId": "NSR:Quay:29647",
      "name": "Eikli",
      "lat": 60.15803,
      "lon": 10.25635,
      "modes": [
        "bus"
      ],
      "stopType": "bus"
    },
    {
      "id": "NSR:Quay:29652",
      "stopPlaceId": "NSR:Quay:29652",
      "name": "Dalsbråten",
      "lat": 60.1537,
      "lon": 10.2573,
      "modes": [
        "bus"
      ],
      "stopType": "bus"
    },
    {
      "id": "NSR:Quay:29656",
      "stopPlaceId": "NSR:Quay:29656",
      "name": "Ringerike sykehus E16",
      "lat": 60.147941,
      "lon": 10.250035,
      "modes": [
        "bus",
        "coach service"
      ],
      "stopType": "multimodal"
    },
    {
      "id": "NSR:Quay:29660",
      "stopPlaceId": "NSR:Quay:29660",
      "name": "Trøgstad",
      "lat": 60.1421,
      "lon": 10.2617,
      "modes": [
        "bus"
      ],
      "stopType": "bus"
    },
    {
      "id": "NSR:Quay:29667",
      "stopPlaceId": "NSR:Quay:29667",
      "name": "Hønensvingen E16",
      "lat": 60.134841,
      "lon": 10.273392,
      "modes": [
        "bus"
      ],
      "stopType": "bus"
    },
    {
      "id": "NSR:Quay:29672",
      "stopPlaceId": "NSR:Quay:29672",
      "name": "Botilrud",
      "lat": 60.129921,
      "lon": 10.274802,
      "modes": [
        "bus"
      ],
      "stopType": "bus"
    },
    {
      "id": "NSR:Quay:29677",
      "stopPlaceId": "NSR:Quay:29677",
      "name": "Gihle",
      "lat": 60.1243,
      "lon": 10.2798,
      "modes": [
        "bus"
      ],
      "stopType": "bus"
    },
    {
      "id": "NSR:Quay:26082",
      "stopPlaceId": "NSR:Quay:26082",
      "name": "Sonerud",
      "lat": 60.116634,
      "lon": 10.282037,
      "modes": [
        "bus"
      ],
      "stopType": "bus"
    },
    {
      "id": "NSR:Quay:26089",
      "stopPlaceId": "NSR:Quay:26089",
      "name": "Vollgata",
      "lat": 60.109543,
      "lon": 10.285464,
      "modes": [
        "bus"
      ],
      "stopType": "bus"
    },
    {
      "id": "NSR:Quay:26096",
      "stopPlaceId": "NSR:Quay:26096",
      "name": "Steinsalléen",
      "lat": 60.1008,
      "lon": 10.2897,
      "modes": [
        "bus"
      ],
      "stopType": "bus"
    },
    {
      "id": "NSR:Quay:26166",
      "stopPlaceId": "NSR:Quay:26166",
      "name": "Sundvollen sentrum",
      "lat": 60.061395,
      "lon": 10.30863,
      "modes": [
        "bus"
      ],
      "stopType": "bus"
    },
    {
      "id": "NSR:Quay:30310",
      "stopPlaceId": "NSR:Quay:30310",
      "name": "Strøtvet snuplass",
      "lat": 59.75302,
      "lon": 10.22008,
      "modes": [
        "bus"
      ],
      "stopType": "bus"
    },
    {
      "id": "NSR:Quay:30308",
      "stopPlaceId": "NSR:Quay:30308",
      "name": "Tord Pedersens gate 83",
      "lat": 59.752265,
      "lon": 10.218554,
      "modes": [
        "bus"
      ],
      "stopType": "bus"
    },
    {
      "id": "NSR:Quay:30307",
      "stopPlaceId": "NSR:Quay:30307",
      "name": "Tord Pedersens gate 67",
      "lat": 59.7512,
      "lon": 10.2202,
      "modes": [
        "bus"
      ],
      "stopType": "bus"
    },
    {
      "id": "NSR:Quay:30305",
      "stopPlaceId": "NSR:Quay:30305",
      "name": "Tord Pedersens gate 42",
      "lat": 59.75105,
      "lon": 10.22304,
      "modes": [
        "bus"
      ],
      "stopType": "bus"
    },
    {
      "id": "NSR:Quay:30304",
      "stopPlaceId": "NSR:Quay:30304",
      "name": "Tord Pedersens gate 42",
      "lat": 59.7509,
      "lon": 10.22326,
      "modes": [
        "bus"
      ],
      "stopType": "bus"
    },
    {
      "id": "NSR:Quay:30306",
      "stopPlaceId": "NSR:Quay:30306",
      "name": "Tord Pedersens gate 67",
      "lat": 59.7513,
      "lon": 10.2203,
      "modes": [
        "bus"
      ],
      "stopType": "bus"
    },
    {
      "id": "NSR:Quay:30309",
      "stopPlaceId": "NSR:Quay:30309",
      "name": "Tord Pedersens gate 83",
      "lat": 59.7523,
      "lon": 10.2188,
      "modes": [
        "bus"
      ],
      "stopType": "bus"
    },
    {
      "id": "NSR:Quay:30311",
      "stopPlaceId": "NSR:Quay:30311",
      "name": "Strøtvet snuplass",
      "lat": 59.752983,
      "lon": 10.220399,
      "modes": [
        "bus"
      ],
      "stopType": "bus"
    },
    {
      "id": "NSR:Quay:28166",
      "stopPlaceId": "NSR:Quay:28166",
      "name": "Lier vgs.",
      "lat": 59.757589,
      "lon": 10.243539,
      "modes": [
        "bus"
      ],
      "stopType": "bus"
    },
    {
      "id": "NSR:Quay:28160",
      "stopPlaceId": "NSR:Quay:28160",
      "name": "St. Hallvard vgs.",
      "lat": 59.75923,
      "lon": 10.237276,
      "modes": [
        "bus"
      ],
      "stopType": "bus"
    },
    {
      "id": "NSR:Quay:27909",
      "stopPlaceId": "NSR:Quay:27909",
      "name": "Jensvollveien",
      "lat": 59.750263,
      "lon": 10.247595,
      "modes": [
        "bus"
      ],
      "stopType": "bus"
    },
    {
      "id": "NSR:Quay:27914",
      "stopPlaceId": "NSR:Quay:27914",
      "name": "Lierstranda 111",
      "lat": 59.751072,
      "lon": 10.251263,
      "modes": [
        "bus"
      ],
      "stopType": "bus"
    },
    {
      "id": "NSR:Quay:27919",
      "stopPlaceId": "NSR:Quay:27919",
      "name": "Frydenlund",
      "lat": 59.751945,
      "lon": 10.255128,
      "modes": [
        "bus"
      ],
      "stopType": "bus"
    },
    {
      "id": "NSR:Quay:27926",
      "stopPlaceId": "NSR:Quay:27926",
      "name": "Amtmannsvingen",
      "lat": 59.752827,
      "lon": 10.260597,
      "modes": [
        "bus"
      ],
      "stopType": "bus"
    },
    {
      "id": "NSR:Quay:27931",
      "stopPlaceId": "NSR:Quay:27931",
      "name": "Industrigata",
      "lat": 59.754991,
      "lon": 10.260887,
      "modes": [
        "bus"
      ],
      "stopType": "bus"
    },
    {
      "id": "NSR:Quay:27936",
      "stopPlaceId": "NSR:Quay:27936",
      "name": "Vitbank",
      "lat": 59.759124,
      "lon": 10.258505,
      "modes": [
        "bus"
      ],
      "stopType": "bus"
    },
    {
      "id": "NSR:Quay:27943",
      "stopPlaceId": "NSR:Quay:27943",
      "name": "Moserud",
      "lat": 59.76383,
      "lon": 10.255297,
      "modes": [
        "bus"
      ],
      "stopType": "bus"
    },
    {
      "id": "NSR:Quay:27948",
      "stopPlaceId": "NSR:Quay:27948",
      "name": "Kjellstad",
      "lat": 59.76604,
      "lon": 10.255255,
      "modes": [
        "bus"
      ],
      "stopType": "bus"
    },
    {
      "id": "NSR:Quay:27957",
      "stopPlaceId": "NSR:Quay:27957",
      "name": "Linnesvollen",
      "lat": 59.769419,
      "lon": 10.256048,
      "modes": [
        "bus"
      ],
      "stopType": "bus"
    },
    {
      "id": "NSR:Quay:27966",
      "stopPlaceId": "NSR:Quay:27966",
      "name": "Liungbanen",
      "lat": 59.775799,
      "lon": 10.248774,
      "modes": [
        "bus"
      ],
      "stopType": "bus"
    },
    {
      "id": "NSR:Quay:27971",
      "stopPlaceId": "NSR:Quay:27971",
      "name": "Heggtoppen øst",
      "lat": 59.77925,
      "lon": 10.24491,
      "modes": [
        "bus"
      ],
      "stopType": "bus"
    },
    {
      "id": "NSR:Quay:27978",
      "stopPlaceId": "NSR:Quay:27978",
      "name": "Hegg skole",
      "lat": 59.782703,
      "lon": 10.243788,
      "modes": [
        "bus"
      ],
      "stopType": "bus"
    },
    {
      "id": "NSR:Quay:29184",
      "stopPlaceId": "NSR:Quay:29184",
      "name": "Lierbyen bussterminal",
      "lat": 59.78714,
      "lon": 10.241912,
      "modes": [
        "bus"
      ],
      "stopType": "bus"
    },
    {
      "id": "NSR:Quay:29178",
      "stopPlaceId": "NSR:Quay:29178",
      "name": "Haskoll",
      "lat": 59.79193,
      "lon": 10.25087,
      "modes": [
        "bus"
      ],
      "stopType": "bus"
    },
    {
      "id": "NSR:Quay:29191",
      "stopPlaceId": "NSR:Quay:29191",
      "name": "Lierbyen skole",
      "lat": 59.792427,
      "lon": 10.26094,
      "modes": [
        "bus"
      ],
      "stopType": "bus"
    },
    {
      "id": "NSR:Quay:29173",
      "stopPlaceId": "NSR:Quay:29173",
      "name": "Lier E-verk",
      "lat": 59.79353,
      "lon": 10.25226,
      "modes": [
        "bus"
      ],
      "stopType": "bus"
    },
    {
      "id": "NSR:Quay:29177",
      "stopPlaceId": "NSR:Quay:29177",
      "name": "Haskoll",
      "lat": 59.79162,
      "lon": 10.25028,
      "modes": [
        "bus"
      ],
      "stopType": "bus"
    },
    {
      "id": "NSR:Quay:29183",
      "stopPlaceId": "NSR:Quay:29183",
      "name": "Lierbyen bussterminal",
      "lat": 59.787013,
      "lon": 10.242508,
      "modes": [
        "bus"
      ],
      "stopType": "bus"
    },
    {
      "id": "NSR:Quay:27977",
      "stopPlaceId": "NSR:Quay:27977",
      "name": "Hegg skole",
      "lat": 59.78331,
      "lon": 10.243707,
      "modes": [
        "bus"
      ],
      "stopType": "bus"
    },
    {
      "id": "NSR:Quay:27972",
      "stopPlaceId": "NSR:Quay:27972",
      "name": "Heggtoppen øst",
      "lat": 59.77925,
      "lon": 10.24468,
      "modes": [
        "bus"
      ],
      "stopType": "bus"
    },
    {
      "id": "NSR:Quay:27965",
      "stopPlaceId": "NSR:Quay:27965",
      "name": "Liungbanen",
      "lat": 59.774821,
      "lon": 10.25003,
      "modes": [
        "bus"
      ],
      "stopType": "bus"
    },
    {
      "id": "NSR:Quay:27956",
      "stopPlaceId": "NSR:Quay:27956",
      "name": "Linnesvollen",
      "lat": 59.768947,
      "lon": 10.256255,
      "modes": [
        "bus"
      ],
      "stopType": "bus"
    },
    {
      "id": "NSR:Quay:27949",
      "stopPlaceId": "NSR:Quay:27949",
      "name": "Kjellstad",
      "lat": 59.765621,
      "lon": 10.254603,
      "modes": [
        "bus"
      ],
      "stopType": "bus"
    },
    {
      "id": "NSR:Quay:27942",
      "stopPlaceId": "NSR:Quay:27942",
      "name": "Moserud",
      "lat": 59.763174,
      "lon": 10.256172,
      "modes": [
        "bus"
      ],
      "stopType": "bus"
    },
    {
      "id": "NSR:Quay:27937",
      "stopPlaceId": "NSR:Quay:27937",
      "name": "Vitbank",
      "lat": 59.758563,
      "lon": 10.258588,
      "modes": [
        "bus"
      ],
      "stopType": "bus"
    },
    {
      "id": "NSR:Quay:27929",
      "stopPlaceId": "NSR:Quay:27929",
      "name": "Industrigata",
      "lat": 59.756428,
      "lon": 10.259845,
      "modes": [
        "bus"
      ],
      "stopType": "bus"
    },
    {
      "id": "NSR:Quay:27925",
      "stopPlaceId": "NSR:Quay:27925",
      "name": "Amtmannsvingen",
      "lat": 59.75289,
      "lon": 10.26028,
      "modes": [
        "bus"
      ],
      "stopType": "bus"
    },
    {
      "id": "NSR:Quay:27920",
      "stopPlaceId": "NSR:Quay:27920",
      "name": "Frydenlund",
      "lat": 59.751934,
      "lon": 10.254775,
      "modes": [
        "bus"
      ],
      "stopType": "bus"
    },
    {
      "id": "NSR:Quay:27913",
      "stopPlaceId": "NSR:Quay:27913",
      "name": "Lierstranda 111",
      "lat": 59.751022,
      "lon": 10.250751,
      "modes": [
        "bus"
      ],
      "stopType": "bus"
    },
    {
      "id": "NSR:Quay:27910",
      "stopPlaceId": "NSR:Quay:27910",
      "name": "Jensvollveien",
      "lat": 59.75022,
      "lon": 10.247193,
      "modes": [
        "bus"
      ],
      "stopType": "bus"
    },
    {
      "id": "NSR:Quay:29171",
      "stopPlaceId": "NSR:Quay:29171",
      "name": "Lier E-verk",
      "lat": 59.794681,
      "lon": 10.253498,
      "modes": [
        "bus"
      ],
      "stopType": "bus"
    },
    {
      "id": "NSR:Quay:29165",
      "stopPlaceId": "NSR:Quay:29165",
      "name": "Gommerud",
      "lat": 59.79731,
      "lon": 10.25428,
      "modes": [
        "bus"
      ],
      "stopType": "bus"
    },
    {
      "id": "NSR:Quay:29160",
      "stopPlaceId": "NSR:Quay:29160",
      "name": "Kikutveien",
      "lat": 59.80153,
      "lon": 10.24944,
      "modes": [
        "bus"
      ],
      "stopType": "bus"
    },
    {
      "id": "NSR:Quay:29154",
      "stopPlaceId": "NSR:Quay:29154",
      "name": "Hellum",
      "lat": 59.8087,
      "lon": 10.2479,
      "modes": [
        "bus"
      ],
      "stopType": "bus"
    },
    {
      "id": "NSR:Quay:29061",
      "stopPlaceId": "NSR:Quay:29061",
      "name": "Lyngåskrysset",
      "lat": 59.815558,
      "lon": 10.248211,
      "modes": [
        "bus"
      ],
      "stopType": "bus"
    },
    {
      "id": "NSR:Quay:29054",
      "stopPlaceId": "NSR:Quay:29054",
      "name": "Lyngåsbanen",
      "lat": 59.8174,
      "lon": 10.249882,
      "modes": [
        "bus"
      ],
      "stopType": "bus"
    },
    {
      "id": "NSR:Quay:29051",
      "stopPlaceId": "NSR:Quay:29051",
      "name": "Tallaksrud",
      "lat": 59.819903,
      "lon": 10.252921,
      "modes": [
        "bus"
      ],
      "stopType": "bus"
    },
    {
      "id": "NSR:Quay:29045",
      "stopPlaceId": "NSR:Quay:29045",
      "name": "Buttedal",
      "lat": 59.822871,
      "lon": 10.254404,
      "modes": [
        "bus"
      ],
      "stopType": "bus"
    },
    {
      "id": "NSR:Quay:29039",
      "stopPlaceId": "NSR:Quay:29039",
      "name": "Dælenggata",
      "lat": 59.824727,
      "lon": 10.255158,
      "modes": [
        "bus"
      ],
      "stopType": "bus"
    },
    {
      "id": "NSR:Quay:29037",
      "stopPlaceId": "NSR:Quay:29037",
      "name": "Nordal skole",
      "lat": 59.828635,
      "lon": 10.256534,
      "modes": [
        "bus"
      ],
      "stopType": "bus"
    },
    {
      "id": "NSR:Quay:29032",
      "stopPlaceId": "NSR:Quay:29032",
      "name": "Røed",
      "lat": 59.833206,
      "lon": 10.258116,
      "modes": [
        "bus"
      ],
      "stopType": "bus"
    },
    {
      "id": "NSR:Quay:29026",
      "stopPlaceId": "NSR:Quay:29026",
      "name": "Sørsdalgata",
      "lat": 59.838686,
      "lon": 10.261534,
      "modes": [
        "bus"
      ],
      "stopType": "bus"
    },
    {
      "id": "NSR:Quay:29021",
      "stopPlaceId": "NSR:Quay:29021",
      "name": "Sørsdal",
      "lat": 59.8402,
      "lon": 10.265,
      "modes": [
        "bus"
      ],
      "stopType": "bus"
    },
    {
      "id": "NSR:Quay:29016",
      "stopPlaceId": "NSR:Quay:29016",
      "name": "Bjerknes",
      "lat": 59.843672,
      "lon": 10.268561,
      "modes": [
        "bus"
      ],
      "stopType": "bus"
    },
    {
      "id": "NSR:Quay:29199",
      "stopPlaceId": "NSR:Quay:29199",
      "name": "Opsahlgata",
      "lat": 59.848748,
      "lon": 10.271554,
      "modes": [
        "bus"
      ],
      "stopType": "bus"
    },
    {
      "id": "NSR:Quay:29011",
      "stopPlaceId": "NSR:Quay:29011",
      "name": "Åmotveien",
      "lat": 59.85048,
      "lon": 10.273139,
      "modes": [
        "bus"
      ],
      "stopType": "bus"
    },
    {
      "id": "NSR:Quay:29005",
      "stopPlaceId": "NSR:Quay:29005",
      "name": "Torsrud",
      "lat": 59.856852,
      "lon": 10.278716,
      "modes": [
        "bus"
      ],
      "stopType": "bus"
    },
    {
      "id": "NSR:Quay:29002",
      "stopPlaceId": "NSR:Quay:29002",
      "name": "Rundtomåsveien",
      "lat": 59.8602,
      "lon": 10.282,
      "modes": [
        "bus"
      ],
      "stopType": "bus"
    },
    {
      "id": "NSR:Quay:28996",
      "stopPlaceId": "NSR:Quay:28996",
      "name": "Skaugen",
      "lat": 59.866976,
      "lon": 10.286905,
      "modes": [
        "bus"
      ],
      "stopType": "bus"
    },
    {
      "id": "NSR:Quay:28991",
      "stopPlaceId": "NSR:Quay:28991",
      "name": "Ødegård",
      "lat": 59.873414,
      "lon": 10.293809,
      "modes": [
        "bus"
      ],
      "stopType": "bus"
    },
    {
      "id": "NSR:Quay:28983",
      "stopPlaceId": "NSR:Quay:28983",
      "name": "Asdøl",
      "lat": 59.878248,
      "lon": 10.298301,
      "modes": [
        "bus"
      ],
      "stopType": "bus"
    },
    {
      "id": "NSR:Quay:28977",
      "stopPlaceId": "NSR:Quay:28977",
      "name": "Kornerud søndre",
      "lat": 59.88097,
      "lon": 10.298169,
      "modes": [
        "bus"
      ],
      "stopType": "bus"
    },
    {
      "id": "NSR:Quay:28973",
      "stopPlaceId": "NSR:Quay:28973",
      "name": "Kornerudsletta",
      "lat": 59.8849,
      "lon": 10.2979,
      "modes": [
        "bus"
      ],
      "stopType": "bus"
    },
    {
      "id": "NSR:Quay:29236",
      "stopPlaceId": "NSR:Quay:29236",
      "name": "Svangstrandveien",
      "lat": 59.892381,
      "lon": 10.296485,
      "modes": [
        "bus"
      ],
      "stopType": "bus"
    },
    {
      "id": "NSR:Quay:28961",
      "stopPlaceId": "NSR:Quay:28961",
      "name": "Sylling skole",
      "lat": 59.8929,
      "lon": 10.2913,
      "modes": [
        "bus"
      ],
      "stopType": "bus"
    },
    {
      "id": "NSR:Quay:28958",
      "stopPlaceId": "NSR:Quay:28958",
      "name": "Sylling",
      "lat": 59.8947,
      "lon": 10.2836,
      "modes": [
        "bus"
      ],
      "stopType": "bus"
    },
    {
      "id": "NSR:Quay:29081",
      "stopPlaceId": "NSR:Quay:29081",
      "name": "Tranby skole",
      "lat": 59.810286,
      "lon": 10.270784,
      "modes": [
        "bus"
      ],
      "stopType": "bus"
    },
    {
      "id": "NSR:Quay:29072",
      "stopPlaceId": "NSR:Quay:29072",
      "name": "Hennumkrysset",
      "lat": 59.808734,
      "lon": 10.260048,
      "modes": [
        "bus"
      ],
      "stopType": "bus"
    },
    {
      "id": "NSR:Quay:29066",
      "stopPlaceId": "NSR:Quay:29066",
      "name": "Hårbergbakken",
      "lat": 59.813195,
      "lon": 10.252307,
      "modes": [
        "bus"
      ],
      "stopType": "bus"
    },
    {
      "id": "NSR:Quay:28947",
      "stopPlaceId": "NSR:Quay:28947",
      "name": "Kyllerud",
      "lat": 59.901749,
      "lon": 10.264299,
      "modes": [
        "bus"
      ],
      "stopType": "bus"
    },
    {
      "id": "NSR:Quay:29220",
      "stopPlaceId": "NSR:Quay:29220",
      "name": "Sylling gård",
      "lat": 59.898332,
      "lon": 10.271361,
      "modes": [
        "bus"
      ],
      "stopType": "bus"
    },
    {
      "id": "NSR:Quay:28954",
      "stopPlaceId": "NSR:Quay:28954",
      "name": "Sylling kirke",
      "lat": 59.897514,
      "lon": 10.277329,
      "modes": [
        "bus"
      ],
      "stopType": "bus"
    },
    {
      "id": "NSR:Quay:29225",
      "stopPlaceId": "NSR:Quay:29225",
      "name": "Syllinghaugen",
      "lat": 59.895664,
      "lon": 10.277215,
      "modes": [
        "bus"
      ],
      "stopType": "bus"
    },
    {
      "id": "NSR:Quay:29205",
      "stopPlaceId": "NSR:Quay:29205",
      "name": "Opsahlsvingen",
      "lat": 59.8938,
      "lon": 10.276112,
      "modes": [
        "bus"
      ],
      "stopType": "bus"
    },
    {
      "id": "NSR:Quay:29227",
      "stopPlaceId": "NSR:Quay:29227",
      "name": "Valstad",
      "lat": 59.89365,
      "lon": 10.278827,
      "modes": [
        "bus"
      ],
      "stopType": "bus"
    },
    {
      "id": "NSR:Quay:28959",
      "stopPlaceId": "NSR:Quay:28959",
      "name": "Sylling",
      "lat": 59.89447,
      "lon": 10.284169,
      "modes": [
        "bus"
      ],
      "stopType": "bus"
    },
    {
      "id": "NSR:Quay:28962",
      "stopPlaceId": "NSR:Quay:28962",
      "name": "Sylling skole",
      "lat": 59.892815,
      "lon": 10.291313,
      "modes": [
        "bus"
      ],
      "stopType": "bus"
    },
    {
      "id": "NSR:Quay:29235",
      "stopPlaceId": "NSR:Quay:29235",
      "name": "Svangstrandveien",
      "lat": 59.892194,
      "lon": 10.29821,
      "modes": [
        "bus"
      ],
      "stopType": "bus"
    },
    {
      "id": "NSR:Quay:28974",
      "stopPlaceId": "NSR:Quay:28974",
      "name": "Kornerudsletta",
      "lat": 59.8841,
      "lon": 10.2978,
      "modes": [
        "bus"
      ],
      "stopType": "bus"
    },
    {
      "id": "NSR:Quay:28978",
      "stopPlaceId": "NSR:Quay:28978",
      "name": "Kornerud søndre",
      "lat": 59.88102,
      "lon": 10.29793,
      "modes": [
        "bus"
      ],
      "stopType": "bus"
    },
    {
      "id": "NSR:Quay:28984",
      "stopPlaceId": "NSR:Quay:28984",
      "name": "Asdøl",
      "lat": 59.878072,
      "lon": 10.29817,
      "modes": [
        "bus"
      ],
      "stopType": "bus"
    },
    {
      "id": "NSR:Quay:28988",
      "stopPlaceId": "NSR:Quay:28988",
      "name": "Ødegård",
      "lat": 59.873312,
      "lon": 10.293471,
      "modes": [
        "bus"
      ],
      "stopType": "bus"
    },
    {
      "id": "NSR:Quay:28995",
      "stopPlaceId": "NSR:Quay:28995",
      "name": "Skaugen",
      "lat": 59.866244,
      "lon": 10.286167,
      "modes": [
        "bus"
      ],
      "stopType": "bus"
    },
    {
      "id": "NSR:Quay:29001",
      "stopPlaceId": "NSR:Quay:29001",
      "name": "Rundtomåsveien",
      "lat": 59.8602,
      "lon": 10.2819,
      "modes": [
        "bus"
      ],
      "stopType": "bus"
    },
    {
      "id": "NSR:Quay:29006",
      "stopPlaceId": "NSR:Quay:29006",
      "name": "Torsrud",
      "lat": 59.857433,
      "lon": 10.278952,
      "modes": [
        "bus"
      ],
      "stopType": "bus"
    },
    {
      "id": "NSR:Quay:29012",
      "stopPlaceId": "NSR:Quay:29012",
      "name": "Åmotveien",
      "lat": 59.850382,
      "lon": 10.272802,
      "modes": [
        "bus"
      ],
      "stopType": "bus"
    },
    {
      "id": "NSR:Quay:29197",
      "stopPlaceId": "NSR:Quay:29197",
      "name": "Opsahlgata",
      "lat": 59.847907,
      "lon": 10.270369,
      "modes": [
        "bus"
      ],
      "stopType": "bus"
    },
    {
      "id": "NSR:Quay:29017",
      "stopPlaceId": "NSR:Quay:29017",
      "name": "Bjerknes",
      "lat": 59.843528,
      "lon": 10.268218,
      "modes": [
        "bus"
      ],
      "stopType": "bus"
    },
    {
      "id": "NSR:Quay:29020",
      "stopPlaceId": "NSR:Quay:29020",
      "name": "Sørsdal",
      "lat": 59.8402,
      "lon": 10.2646,
      "modes": [
        "bus"
      ],
      "stopType": "bus"
    },
    {
      "id": "NSR:Quay:29027",
      "stopPlaceId": "NSR:Quay:29027",
      "name": "Sørsdalgata",
      "lat": 59.838479,
      "lon": 10.261011,
      "modes": [
        "bus"
      ],
      "stopType": "bus"
    },
    {
      "id": "NSR:Quay:29033",
      "stopPlaceId": "NSR:Quay:29033",
      "name": "Røed",
      "lat": 59.834321,
      "lon": 10.258664,
      "modes": [
        "bus"
      ],
      "stopType": "bus"
    },
    {
      "id": "NSR:Quay:29038",
      "stopPlaceId": "NSR:Quay:29038",
      "name": "Nordal skole",
      "lat": 59.828719,
      "lon": 10.256459,
      "modes": [
        "bus"
      ],
      "stopType": "bus"
    },
    {
      "id": "NSR:Quay:29040",
      "stopPlaceId": "NSR:Quay:29040",
      "name": "Dælenggata",
      "lat": 59.824673,
      "lon": 10.254984,
      "modes": [
        "bus"
      ],
      "stopType": "bus"
    },
    {
      "id": "NSR:Quay:29044",
      "stopPlaceId": "NSR:Quay:29044",
      "name": "Buttedal",
      "lat": 59.822756,
      "lon": 10.254203,
      "modes": [
        "bus"
      ],
      "stopType": "bus"
    },
    {
      "id": "NSR:Quay:29050",
      "stopPlaceId": "NSR:Quay:29050",
      "name": "Tallaksrud",
      "lat": 59.819792,
      "lon": 10.252731,
      "modes": [
        "bus"
      ],
      "stopType": "bus"
    },
    {
      "id": "NSR:Quay:29055",
      "stopPlaceId": "NSR:Quay:29055",
      "name": "Lyngåsbanen",
      "lat": 59.817352,
      "lon": 10.249528,
      "modes": [
        "bus"
      ],
      "stopType": "bus"
    },
    {
      "id": "NSR:Quay:29060",
      "stopPlaceId": "NSR:Quay:29060",
      "name": "Lyngåskrysset",
      "lat": 59.814843,
      "lon": 10.248308,
      "modes": [
        "bus"
      ],
      "stopType": "bus"
    },
    {
      "id": "NSR:Quay:29153",
      "stopPlaceId": "NSR:Quay:29153",
      "name": "Hellum",
      "lat": 59.80852,
      "lon": 10.24779,
      "modes": [
        "bus"
      ],
      "stopType": "bus"
    },
    {
      "id": "NSR:Quay:29161",
      "stopPlaceId": "NSR:Quay:29161",
      "name": "Kikutveien",
      "lat": 59.80121,
      "lon": 10.24907,
      "modes": [
        "bus"
      ],
      "stopType": "bus"
    },
    {
      "id": "NSR:Quay:29164",
      "stopPlaceId": "NSR:Quay:29164",
      "name": "Gommerud",
      "lat": 59.79735,
      "lon": 10.25399,
      "modes": [
        "bus"
      ],
      "stopType": "bus"
    },
    {
      "id": "NSR:Quay:27666",
      "stopPlaceId": "NSR:Quay:27666",
      "name": "Heggtoppen",
      "lat": 59.78076,
      "lon": 10.243067,
      "modes": [
        "bus"
      ],
      "stopType": "bus"
    },
    {
      "id": "NSR:Quay:27659",
      "stopPlaceId": "NSR:Quay:27659",
      "name": "Nedre Frogner",
      "lat": 59.77939,
      "lon": 10.23733,
      "modes": [
        "bus"
      ],
      "stopType": "bus"
    },
    {
      "id": "NSR:Quay:27655",
      "stopPlaceId": "NSR:Quay:27655",
      "name": "Gluggen",
      "lat": 59.778798,
      "lon": 10.231187,
      "modes": [
        "bus"
      ],
      "stopType": "bus"
    },
    {
      "id": "NSR:Quay:27650",
      "stopPlaceId": "NSR:Quay:27650",
      "name": "Grette Frukt",
      "lat": 59.77553,
      "lon": 10.233781,
      "modes": [
        "bus"
      ],
      "stopType": "bus"
    },
    {
      "id": "NSR:Quay:27644",
      "stopPlaceId": "NSR:Quay:27644",
      "name": "Østvold",
      "lat": 59.772804,
      "lon": 10.235205,
      "modes": [
        "bus"
      ],
      "stopType": "bus"
    },
    {
      "id": "NSR:Quay:27639",
      "stopPlaceId": "NSR:Quay:27639",
      "name": "Sandakertoppen",
      "lat": 59.770076,
      "lon": 10.237834,
      "modes": [
        "bus"
      ],
      "stopType": "bus"
    },
    {
      "id": "NSR:Quay:27633",
      "stopPlaceId": "NSR:Quay:27633",
      "name": "Sandakerkrysset",
      "lat": 59.76791,
      "lon": 10.237262,
      "modes": [
        "bus"
      ],
      "stopType": "bus"
    },
    {
      "id": "NSR:Quay:27628",
      "stopPlaceId": "NSR:Quay:27628",
      "name": "Stoppen idrettspark",
      "lat": 59.763895,
      "lon": 10.235546,
      "modes": [
        "bus"
      ],
      "stopType": "bus"
    },
    {
      "id": "NSR:Quay:28165",
      "stopPlaceId": "NSR:Quay:28165",
      "name": "Lier vgs.",
      "lat": 59.757489,
      "lon": 10.243488,
      "modes": [
        "bus"
      ],
      "stopType": "bus"
    },
    {
      "id": "NSR:Quay:29064",
      "stopPlaceId": "NSR:Quay:29064",
      "name": "Hårbergbakken",
      "lat": 59.813092,
      "lon": 10.25214,
      "modes": [
        "bus"
      ],
      "stopType": "bus"
    },
    {
      "id": "NSR:Quay:29073",
      "stopPlaceId": "NSR:Quay:29073",
      "name": "Hennumkrysset",
      "lat": 59.808248,
      "lon": 10.261078,
      "modes": [
        "bus"
      ],
      "stopType": "bus"
    },
    {
      "id": "NSR:Quay:29078",
      "stopPlaceId": "NSR:Quay:29078",
      "name": "Bjørkesvingen",
      "lat": 59.806986,
      "lon": 10.26767,
      "modes": [
        "bus"
      ],
      "stopType": "bus"
    },
    {
      "id": "NSR:Quay:29082",
      "stopPlaceId": "NSR:Quay:29082",
      "name": "Tranby skole",
      "lat": 59.809844,
      "lon": 10.271122,
      "modes": [
        "bus"
      ],
      "stopType": "bus"
    },
    {
      "id": "NSR:Quay:27672",
      "stopPlaceId": "NSR:Quay:27672",
      "name": "Bilbo",
      "lat": 59.790691,
      "lon": 10.240202,
      "modes": [
        "bus"
      ],
      "stopType": "bus"
    },
    {
      "id": "NSR:Quay:27676",
      "stopPlaceId": "NSR:Quay:27676",
      "name": "Renskaug søndre",
      "lat": 59.795654,
      "lon": 10.234312,
      "modes": [
        "bus"
      ],
      "stopType": "bus"
    },
    {
      "id": "NSR:Quay:27682",
      "stopPlaceId": "NSR:Quay:27682",
      "name": "Renskaug",
      "lat": 59.797883,
      "lon": 10.232078,
      "modes": [
        "bus"
      ],
      "stopType": "bus"
    },
    {
      "id": "NSR:Quay:27688",
      "stopPlaceId": "NSR:Quay:27688",
      "name": "Landfallsletta",
      "lat": 59.8047,
      "lon": 10.2265,
      "modes": [
        "bus"
      ],
      "stopType": "bus"
    },
    {
      "id": "NSR:Quay:27695",
      "stopPlaceId": "NSR:Quay:27695",
      "name": "Landfall",
      "lat": 59.8075,
      "lon": 10.2217,
      "modes": [
        "bus"
      ],
      "stopType": "bus"
    },
    {
      "id": "NSR:Quay:27699",
      "stopPlaceId": "NSR:Quay:27699",
      "name": "Frogner sykehjem",
      "lat": 59.8108,
      "lon": 10.2202,
      "modes": [
        "bus"
      ],
      "stopType": "bus"
    },
    {
      "id": "NSR:Quay:27706",
      "stopPlaceId": "NSR:Quay:27706",
      "name": "Egge skole",
      "lat": 59.8148,
      "lon": 10.2146,
      "modes": [
        "bus"
      ],
      "stopType": "bus"
    },
    {
      "id": "NSR:Quay:27712",
      "stopPlaceId": "NSR:Quay:27712",
      "name": "Egge handel",
      "lat": 59.816525,
      "lon": 10.210752,
      "modes": [
        "bus"
      ],
      "stopType": "bus"
    },
    {
      "id": "NSR:Quay:27717",
      "stopPlaceId": "NSR:Quay:27717",
      "name": "Eikseterveien",
      "lat": 59.82097,
      "lon": 10.204043,
      "modes": [
        "bus"
      ],
      "stopType": "bus"
    },
    {
      "id": "NSR:Quay:27724",
      "stopPlaceId": "NSR:Quay:27724",
      "name": "Torstad",
      "lat": 59.8228,
      "lon": 10.2028,
      "modes": [
        "bus"
      ],
      "stopType": "bus"
    },
    {
      "id": "NSR:Quay:27729",
      "stopPlaceId": "NSR:Quay:27729",
      "name": "Mikkelsen",
      "lat": 59.827,
      "lon": 10.2068,
      "modes": [
        "bus"
      ],
      "stopType": "bus"
    },
    {
      "id": "NSR:Quay:27734",
      "stopPlaceId": "NSR:Quay:27734",
      "name": "Øksne",
      "lat": 59.8325,
      "lon": 10.210243,
      "modes": [
        "bus"
      ],
      "stopType": "bus"
    },
    {
      "id": "NSR:Quay:27739",
      "stopPlaceId": "NSR:Quay:27739",
      "name": "Treffen",
      "lat": 59.83753,
      "lon": 10.214066,
      "modes": [
        "bus"
      ],
      "stopType": "bus"
    },
    {
      "id": "NSR:Quay:27745",
      "stopPlaceId": "NSR:Quay:27745",
      "name": "Meren",
      "lat": 59.8433,
      "lon": 10.2217,
      "modes": [
        "bus"
      ],
      "stopType": "bus"
    },
    {
      "id": "NSR:Quay:27751",
      "stopPlaceId": "NSR:Quay:27751",
      "name": "Roaldsrudveien",
      "lat": 59.8461,
      "lon": 10.2244,
      "modes": [
        "bus"
      ],
      "stopType": "bus"
    },
    {
      "id": "NSR:Quay:27756",
      "stopPlaceId": "NSR:Quay:27756",
      "name": "Steinberg",
      "lat": 59.8477,
      "lon": 10.2212,
      "modes": [
        "bus"
      ],
      "stopType": "bus"
    },
    {
      "id": "NSR:Quay:27760",
      "stopPlaceId": "NSR:Quay:27760",
      "name": "Sjåstad kirke",
      "lat": 59.8494,
      "lon": 10.2164,
      "modes": [
        "bus"
      ],
      "stopType": "bus"
    },
    {
      "id": "NSR:Quay:27776",
      "stopPlaceId": "NSR:Quay:27776",
      "name": "Sjåstad",
      "lat": 59.857,
      "lon": 10.2182,
      "modes": [
        "bus"
      ],
      "stopType": "bus"
    },
    {
      "id": "NSR:Quay:27785",
      "stopPlaceId": "NSR:Quay:27785",
      "name": "Sjåstad Handel",
      "lat": 59.8578,
      "lon": 10.2157,
      "modes": [
        "bus"
      ],
      "stopType": "bus"
    },
    {
      "id": "NSR:Quay:27786",
      "stopPlaceId": "NSR:Quay:27786",
      "name": "Justadtoppen",
      "lat": 59.8609,
      "lon": 10.2148,
      "modes": [
        "bus"
      ],
      "stopType": "bus"
    },
    {
      "id": "NSR:Quay:27792",
      "stopPlaceId": "NSR:Quay:27792",
      "name": "Oddevall skole",
      "lat": 59.8627,
      "lon": 10.2155,
      "modes": [
        "bus"
      ],
      "stopType": "bus"
    },
    {
      "id": "NSR:Quay:27799",
      "stopPlaceId": "NSR:Quay:27799",
      "name": "Gifstadbakken",
      "lat": 59.8634,
      "lon": 10.2176,
      "modes": [
        "bus"
      ],
      "stopType": "bus"
    },
    {
      "id": "NSR:Quay:27802",
      "stopPlaceId": "NSR:Quay:27802",
      "name": "Gifstad",
      "lat": 59.8658,
      "lon": 10.223,
      "modes": [
        "bus"
      ],
      "stopType": "bus"
    },
    {
      "id": "NSR:Quay:27808",
      "stopPlaceId": "NSR:Quay:27808",
      "name": "Rundbråten Svarthavna",
      "lat": 59.8695,
      "lon": 10.228,
      "modes": [
        "bus"
      ],
      "stopType": "bus"
    },
    {
      "id": "NSR:Quay:27815",
      "stopPlaceId": "NSR:Quay:27815",
      "name": "Mitten",
      "lat": 59.873,
      "lon": 10.2309,
      "modes": [
        "bus"
      ],
      "stopType": "bus"
    },
    {
      "id": "NSR:Quay:27819",
      "stopPlaceId": "NSR:Quay:27819",
      "name": "Ellevågsvingen",
      "lat": 59.8777,
      "lon": 10.2387,
      "modes": [
        "bus"
      ],
      "stopType": "bus"
    },
    {
      "id": "NSR:Quay:27825",
      "stopPlaceId": "NSR:Quay:27825",
      "name": "Delekant",
      "lat": 59.882,
      "lon": 10.2353,
      "modes": [
        "bus"
      ],
      "stopType": "bus"
    },
    {
      "id": "NSR:Quay:27828",
      "stopPlaceId": "NSR:Quay:27828",
      "name": "Kanada",
      "lat": 59.8886,
      "lon": 10.2301,
      "modes": [
        "bus"
      ],
      "stopType": "bus"
    },
    {
      "id": "NSR:Quay:27835",
      "stopPlaceId": "NSR:Quay:27835",
      "name": "Granly",
      "lat": 59.8907,
      "lon": 10.2302,
      "modes": [
        "bus"
      ],
      "stopType": "bus"
    },
    {
      "id": "NSR:Quay:27841",
      "stopPlaceId": "NSR:Quay:27841",
      "name": "Trolldalen",
      "lat": 59.8947,
      "lon": 10.232,
      "modes": [
        "bus"
      ],
      "stopType": "bus"
    },
    {
      "id": "NSR:Quay:27844",
      "stopPlaceId": "NSR:Quay:27844",
      "name": "Solberg vest",
      "lat": 59.8934,
      "lon": 10.2366,
      "modes": [
        "bus"
      ],
      "stopType": "bus"
    },
    {
      "id": "NSR:Quay:27852",
      "stopPlaceId": "NSR:Quay:27852",
      "name": "Solberg",
      "lat": 59.895,
      "lon": 10.2489,
      "modes": [
        "bus"
      ],
      "stopType": "bus"
    },
    {
      "id": "NSR:Quay:27858",
      "stopPlaceId": "NSR:Quay:27858",
      "name": "Rihen",
      "lat": 59.8979,
      "lon": 10.2542,
      "modes": [
        "bus"
      ],
      "stopType": "bus"
    },
    {
      "id": "NSR:Quay:27864",
      "stopPlaceId": "NSR:Quay:27864",
      "name": "Fagerliåsen",
      "lat": 59.9019,
      "lon": 10.2603,
      "modes": [
        "bus"
      ],
      "stopType": "bus"
    },
    {
      "id": "NSR:Quay:29230",
      "stopPlaceId": "NSR:Quay:29230",
      "name": "Valstad",
      "lat": 59.89367,
      "lon": 10.278651,
      "modes": [
        "bus"
      ],
      "stopType": "bus"
    },
    {
      "id": "NSR:Quay:29223",
      "stopPlaceId": "NSR:Quay:29223",
      "name": "Syllinghaugen",
      "lat": 59.895645,
      "lon": 10.277374,
      "modes": [
        "bus"
      ],
      "stopType": "bus"
    },
    {
      "id": "NSR:Quay:28952",
      "stopPlaceId": "NSR:Quay:28952",
      "name": "Sylling kirke",
      "lat": 59.897289,
      "lon": 10.277764,
      "modes": [
        "bus"
      ],
      "stopType": "bus"
    },
    {
      "id": "NSR:Quay:29219",
      "stopPlaceId": "NSR:Quay:29219",
      "name": "Sylling gård",
      "lat": 59.898481,
      "lon": 10.271257,
      "modes": [
        "bus"
      ],
      "stopType": "bus"
    },
    {
      "id": "NSR:Quay:28945",
      "stopPlaceId": "NSR:Quay:28945",
      "name": "Kyllerud",
      "lat": 59.902123,
      "lon": 10.263945,
      "modes": [
        "bus"
      ],
      "stopType": "bus"
    },
    {
      "id": "NSR:Quay:27865",
      "stopPlaceId": "NSR:Quay:27865",
      "name": "Fagerliåsen",
      "lat": 59.9018,
      "lon": 10.2591,
      "modes": [
        "bus"
      ],
      "stopType": "bus"
    },
    {
      "id": "NSR:Quay:27859",
      "stopPlaceId": "NSR:Quay:27859",
      "name": "Rihen",
      "lat": 59.8979,
      "lon": 10.2539,
      "modes": [
        "bus"
      ],
      "stopType": "bus"
    },
    {
      "id": "NSR:Quay:27853",
      "stopPlaceId": "NSR:Quay:27853",
      "name": "Solberg",
      "lat": 59.8952,
      "lon": 10.2485,
      "modes": [
        "bus"
      ],
      "stopType": "bus"
    },
    {
      "id": "NSR:Quay:27846",
      "stopPlaceId": "NSR:Quay:27846",
      "name": "Solberg vest",
      "lat": 59.8936,
      "lon": 10.2362,
      "modes": [
        "bus"
      ],
      "stopType": "bus"
    },
    {
      "id": "NSR:Quay:27840",
      "stopPlaceId": "NSR:Quay:27840",
      "name": "Trolldalen",
      "lat": 59.8949,
      "lon": 10.2318,
      "modes": [
        "bus"
      ],
      "stopType": "bus"
    },
    {
      "id": "NSR:Quay:27834",
      "stopPlaceId": "NSR:Quay:27834",
      "name": "Granly",
      "lat": 59.8908,
      "lon": 10.2298,
      "modes": [
        "bus"
      ],
      "stopType": "bus"
    },
    {
      "id": "NSR:Quay:27829",
      "stopPlaceId": "NSR:Quay:27829",
      "name": "Kanada",
      "lat": 59.8886,
      "lon": 10.2298,
      "modes": [
        "bus"
      ],
      "stopType": "bus"
    },
    {
      "id": "NSR:Quay:27824",
      "stopPlaceId": "NSR:Quay:27824",
      "name": "Delekant",
      "lat": 59.881954,
      "lon": 10.235137,
      "modes": [
        "bus"
      ],
      "stopType": "bus"
    },
    {
      "id": "NSR:Quay:27818",
      "stopPlaceId": "NSR:Quay:27818",
      "name": "Ellevågsvingen",
      "lat": 59.8777,
      "lon": 10.2384,
      "modes": [
        "bus"
      ],
      "stopType": "bus"
    },
    {
      "id": "NSR:Quay:27814",
      "stopPlaceId": "NSR:Quay:27814",
      "name": "Mitten",
      "lat": 59.8724,
      "lon": 10.2303,
      "modes": [
        "bus"
      ],
      "stopType": "bus"
    },
    {
      "id": "NSR:Quay:27809",
      "stopPlaceId": "NSR:Quay:27809",
      "name": "Rundbråten Svarthavna",
      "lat": 59.87,
      "lon": 10.2276,
      "modes": [
        "bus"
      ],
      "stopType": "bus"
    },
    {
      "id": "NSR:Quay:27803",
      "stopPlaceId": "NSR:Quay:27803",
      "name": "Gifstad",
      "lat": 59.8659,
      "lon": 10.2227,
      "modes": [
        "bus"
      ],
      "stopType": "bus"
    },
    {
      "id": "NSR:Quay:27798",
      "stopPlaceId": "NSR:Quay:27798",
      "name": "Gifstadbakken",
      "lat": 59.8636,
      "lon": 10.2176,
      "modes": [
        "bus"
      ],
      "stopType": "bus"
    },
    {
      "id": "NSR:Quay:27793",
      "stopPlaceId": "NSR:Quay:27793",
      "name": "Oddevall skole",
      "lat": 59.8628,
      "lon": 10.2152,
      "modes": [
        "bus"
      ],
      "stopType": "bus"
    },
    {
      "id": "NSR:Quay:27787",
      "stopPlaceId": "NSR:Quay:27787",
      "name": "Justadtoppen",
      "lat": 59.8609,
      "lon": 10.2145,
      "modes": [
        "bus"
      ],
      "stopType": "bus"
    },
    {
      "id": "NSR:Quay:27782",
      "stopPlaceId": "NSR:Quay:27782",
      "name": "Sjåstad Handel",
      "lat": 59.8576,
      "lon": 10.216,
      "modes": [
        "bus"
      ],
      "stopType": "bus"
    },
    {
      "id": "NSR:Quay:27777",
      "stopPlaceId": "NSR:Quay:27777",
      "name": "Sjåstad",
      "lat": 59.8569,
      "lon": 10.2179,
      "modes": [
        "bus"
      ],
      "stopType": "bus"
    },
    {
      "id": "NSR:Quay:27761",
      "stopPlaceId": "NSR:Quay:27761",
      "name": "Sjåstad kirke",
      "lat": 59.8497,
      "lon": 10.2157,
      "modes": [
        "bus"
      ],
      "stopType": "bus"
    },
    {
      "id": "NSR:Quay:27759",
      "stopPlaceId": "NSR:Quay:27759",
      "name": "Steinberg",
      "lat": 59.8476,
      "lon": 10.221,
      "modes": [
        "bus"
      ],
      "stopType": "bus"
    },
    {
      "id": "NSR:Quay:27750",
      "stopPlaceId": "NSR:Quay:27750",
      "name": "Roaldsrudveien",
      "lat": 59.8458,
      "lon": 10.2243,
      "modes": [
        "bus"
      ],
      "stopType": "bus"
    },
    {
      "id": "NSR:Quay:27744",
      "stopPlaceId": "NSR:Quay:27744",
      "name": "Meren",
      "lat": 59.8435,
      "lon": 10.2216,
      "modes": [
        "bus"
      ],
      "stopType": "bus"
    },
    {
      "id": "NSR:Quay:27741",
      "stopPlaceId": "NSR:Quay:27741",
      "name": "Treffen",
      "lat": 59.8375,
      "lon": 10.2135,
      "modes": [
        "bus"
      ],
      "stopType": "bus"
    },
    {
      "id": "NSR:Quay:27735",
      "stopPlaceId": "NSR:Quay:27735",
      "name": "Øksne",
      "lat": 59.832,
      "lon": 10.2087,
      "modes": [
        "bus"
      ],
      "stopType": "bus"
    },
    {
      "id": "NSR:Quay:27728",
      "stopPlaceId": "NSR:Quay:27728",
      "name": "Mikkelsen",
      "lat": 59.827,
      "lon": 10.2066,
      "modes": [
        "bus"
      ],
      "stopType": "bus"
    },
    {
      "id": "NSR:Quay:27722",
      "stopPlaceId": "NSR:Quay:27722",
      "name": "Torstad",
      "lat": 59.822453,
      "lon": 10.202097,
      "modes": [
        "bus"
      ],
      "stopType": "bus"
    },
    {
      "id": "NSR:Quay:27718",
      "stopPlaceId": "NSR:Quay:27718",
      "name": "Eikseterveien",
      "lat": 59.821087,
      "lon": 10.203592,
      "modes": [
        "bus"
      ],
      "stopType": "bus"
    },
    {
      "id": "NSR:Quay:27711",
      "stopPlaceId": "NSR:Quay:27711",
      "name": "Egge handel",
      "lat": 59.816,
      "lon": 10.211523,
      "modes": [
        "bus"
      ],
      "stopType": "bus"
    },
    {
      "id": "NSR:Quay:27704",
      "stopPlaceId": "NSR:Quay:27704",
      "name": "Egge skole",
      "lat": 59.8145,
      "lon": 10.2147,
      "modes": [
        "bus"
      ],
      "stopType": "bus"
    },
    {
      "id": "NSR:Quay:27700",
      "stopPlaceId": "NSR:Quay:27700",
      "name": "Frogner sykehjem",
      "lat": 59.8107,
      "lon": 10.2198,
      "modes": [
        "bus"
      ],
      "stopType": "bus"
    },
    {
      "id": "NSR:Quay:27696",
      "stopPlaceId": "NSR:Quay:27696",
      "name": "Landfall",
      "lat": 59.8078,
      "lon": 10.2211,
      "modes": [
        "bus"
      ],
      "stopType": "bus"
    },
    {
      "id": "NSR:Quay:27687",
      "stopPlaceId": "NSR:Quay:27687",
      "name": "Landfallsletta",
      "lat": 59.8047,
      "lon": 10.2261,
      "modes": [
        "bus"
      ],
      "stopType": "bus"
    },
    {
      "id": "NSR:Quay:27681",
      "stopPlaceId": "NSR:Quay:27681",
      "name": "Renskaug",
      "lat": 59.799215,
      "lon": 10.230643,
      "modes": [
        "bus"
      ],
      "stopType": "bus"
    },
    {
      "id": "NSR:Quay:27675",
      "stopPlaceId": "NSR:Quay:27675",
      "name": "Renskaug søndre",
      "lat": 59.79575,
      "lon": 10.233893,
      "modes": [
        "bus"
      ],
      "stopType": "bus"
    },
    {
      "id": "NSR:Quay:27671",
      "stopPlaceId": "NSR:Quay:27671",
      "name": "Bilbo",
      "lat": 59.791365,
      "lon": 10.23933,
      "modes": [
        "bus"
      ],
      "stopType": "bus"
    },
    {
      "id": "NSR:Quay:29206",
      "stopPlaceId": "NSR:Quay:29206",
      "name": "Opsahlsvingen",
      "lat": 59.89366,
      "lon": 10.276588,
      "modes": [
        "bus"
      ],
      "stopType": "bus"
    },
    {
      "id": "NSR:Quay:27869",
      "stopPlaceId": "NSR:Quay:27869",
      "name": "Bjørka",
      "lat": 59.892493,
      "lon": 10.275245,
      "modes": [
        "bus"
      ],
      "stopType": "bus"
    },
    {
      "id": "NSR:Quay:27875",
      "stopPlaceId": "NSR:Quay:27875",
      "name": "Gunnerud",
      "lat": 59.88668,
      "lon": 10.26531,
      "modes": [
        "bus"
      ],
      "stopType": "bus"
    },
    {
      "id": "NSR:Quay:27879",
      "stopPlaceId": "NSR:Quay:27879",
      "name": "Skjeggerud",
      "lat": 59.882,
      "lon": 10.2589,
      "modes": [
        "bus"
      ],
      "stopType": "bus"
    },
    {
      "id": "NSR:Quay:27883",
      "stopPlaceId": "NSR:Quay:27883",
      "name": "Tronstad",
      "lat": 59.882797,
      "lon": 10.245996,
      "modes": [
        "bus"
      ],
      "stopType": "bus"
    },
    {
      "id": "NSR:Quay:27889",
      "stopPlaceId": "NSR:Quay:27889",
      "name": "Tronstad Bruk",
      "lat": 59.882374,
      "lon": 10.242966,
      "modes": [
        "bus"
      ],
      "stopType": "bus"
    },
    {
      "id": "NSR:Quay:27888",
      "stopPlaceId": "NSR:Quay:27888",
      "name": "Tronstad Bruk",
      "lat": 59.882156,
      "lon": 10.243282,
      "modes": [
        "bus"
      ],
      "stopType": "bus"
    },
    {
      "id": "NSR:Quay:27884",
      "stopPlaceId": "NSR:Quay:27884",
      "name": "Tronstad",
      "lat": 59.882565,
      "lon": 10.245852,
      "modes": [
        "bus"
      ],
      "stopType": "bus"
    },
    {
      "id": "NSR:Quay:27880",
      "stopPlaceId": "NSR:Quay:27880",
      "name": "Skjeggerud",
      "lat": 59.882,
      "lon": 10.2592,
      "modes": [
        "bus"
      ],
      "stopType": "bus"
    },
    {
      "id": "NSR:Quay:27874",
      "stopPlaceId": "NSR:Quay:27874",
      "name": "Gunnerud",
      "lat": 59.88709,
      "lon": 10.26686,
      "modes": [
        "bus"
      ],
      "stopType": "bus"
    },
    {
      "id": "NSR:Quay:27868",
      "stopPlaceId": "NSR:Quay:27868",
      "name": "Bjørka",
      "lat": 59.892542,
      "lon": 10.275401,
      "modes": [
        "bus"
      ],
      "stopType": "bus"
    },
    {
      "id": "NSR:Quay:28942",
      "stopPlaceId": "NSR:Quay:28942",
      "name": "Hørte",
      "lat": 59.909243,
      "lon": 10.282997,
      "modes": [
        "bus"
      ],
      "stopType": "bus"
    },
    {
      "id": "NSR:Quay:28940",
      "stopPlaceId": "NSR:Quay:28940",
      "name": "Svingen",
      "lat": 59.9163,
      "lon": 10.2838,
      "modes": [
        "bus"
      ],
      "stopType": "bus"
    },
    {
      "id": "NSR:Quay:28935",
      "stopPlaceId": "NSR:Quay:28935",
      "name": "Granum",
      "lat": 59.919988,
      "lon": 10.288554,
      "modes": [
        "bus"
      ],
      "stopType": "bus"
    },
    {
      "id": "NSR:Quay:27991",
      "stopPlaceId": "NSR:Quay:27991",
      "name": "Skustadveien",
      "lat": 59.931316,
      "lon": 10.27069,
      "modes": [
        "bus"
      ],
      "stopType": "bus"
    },
    {
      "id": "NSR:Quay:27986",
      "stopPlaceId": "NSR:Quay:27986",
      "name": "Røine",
      "lat": 59.93576,
      "lon": 10.267763,
      "modes": [
        "bus"
      ],
      "stopType": "bus"
    },
    {
      "id": "NSR:Quay:27983",
      "stopPlaceId": "NSR:Quay:27983",
      "name": "Myrbråtaveien",
      "lat": 59.942345,
      "lon": 10.283584,
      "modes": [
        "bus"
      ],
      "stopType": "bus"
    },
    {
      "id": "NSR:Quay:28920",
      "stopPlaceId": "NSR:Quay:28920",
      "name": "Brygga",
      "lat": 59.946863,
      "lon": 10.294726,
      "modes": [
        "bus"
      ],
      "stopType": "bus"
    },
    {
      "id": "NSR:Quay:28914",
      "stopPlaceId": "NSR:Quay:28914",
      "name": "Liaveien Saga",
      "lat": 59.954141,
      "lon": 10.292408,
      "modes": [
        "bus"
      ],
      "stopType": "bus"
    },
    {
      "id": "NSR:Quay:28908",
      "stopPlaceId": "NSR:Quay:28908",
      "name": "Horn",
      "lat": 59.95949,
      "lon": 10.282409,
      "modes": [
        "bus"
      ],
      "stopType": "bus"
    },
    {
      "id": "NSR:Quay:28904",
      "stopPlaceId": "NSR:Quay:28904",
      "name": "Hornstua",
      "lat": 59.96153,
      "lon": 10.280475,
      "modes": [
        "bus"
      ],
      "stopType": "bus"
    },
    {
      "id": "NSR:Quay:28905",
      "stopPlaceId": "NSR:Quay:28905",
      "name": "Hornstua",
      "lat": 59.961448,
      "lon": 10.280263,
      "modes": [
        "bus"
      ],
      "stopType": "bus"
    },
    {
      "id": "NSR:Quay:28909",
      "stopPlaceId": "NSR:Quay:28909",
      "name": "Horn",
      "lat": 59.959364,
      "lon": 10.282348,
      "modes": [
        "bus"
      ],
      "stopType": "bus"
    },
    {
      "id": "NSR:Quay:28915",
      "stopPlaceId": "NSR:Quay:28915",
      "name": "Liaveien Saga",
      "lat": 59.954092,
      "lon": 10.292215,
      "modes": [
        "bus"
      ],
      "stopType": "bus"
    },
    {
      "id": "NSR:Quay:28922",
      "stopPlaceId": "NSR:Quay:28922",
      "name": "Brygga",
      "lat": 59.946825,
      "lon": 10.294576,
      "modes": [
        "bus"
      ],
      "stopType": "bus"
    },
    {
      "id": "NSR:Quay:28925",
      "stopPlaceId": "NSR:Quay:28925",
      "name": "Holmen",
      "lat": 59.941101,
      "lon": 10.296091,
      "modes": [
        "bus"
      ],
      "stopType": "bus"
    },
    {
      "id": "NSR:Quay:28928",
      "stopPlaceId": "NSR:Quay:28928",
      "name": "Eik Fina",
      "lat": 59.934862,
      "lon": 10.296949,
      "modes": [
        "bus"
      ],
      "stopType": "bus"
    },
    {
      "id": "NSR:Quay:28933",
      "stopPlaceId": "NSR:Quay:28933",
      "name": "Drag",
      "lat": 59.927271,
      "lon": 10.29364,
      "modes": [
        "bus"
      ],
      "stopType": "bus"
    },
    {
      "id": "NSR:Quay:28936",
      "stopPlaceId": "NSR:Quay:28936",
      "name": "Granum",
      "lat": 59.920072,
      "lon": 10.288482,
      "modes": [
        "bus"
      ],
      "stopType": "bus"
    },
    {
      "id": "NSR:Quay:28943",
      "stopPlaceId": "NSR:Quay:28943",
      "name": "Hørte",
      "lat": 59.909112,
      "lon": 10.282567,
      "modes": [
        "bus"
      ],
      "stopType": "bus"
    },
    {
      "id": "NSR:Quay:28949",
      "stopPlaceId": "NSR:Quay:28949",
      "name": "Kyllerud",
      "lat": 59.902677,
      "lon": 10.263387,
      "modes": [
        "bus"
      ],
      "stopType": "bus"
    },
    {
      "id": "NSR:Quay:27767",
      "stopPlaceId": "NSR:Quay:27767",
      "name": "Åmotveien/Vestsideveien kryss",
      "lat": 59.851223,
      "lon": 10.216474,
      "modes": [
        "bus"
      ],
      "stopType": "bus"
    },
    {
      "id": "NSR:Quay:27770",
      "stopPlaceId": "NSR:Quay:27770",
      "name": "Kortnes",
      "lat": 59.838253,
      "lon": 10.236609,
      "modes": [
        "bus"
      ],
      "stopType": "bus"
    },
    {
      "id": "NSR:Quay:29259",
      "stopPlaceId": "NSR:Quay:29259",
      "name": "Baneveien",
      "lat": 59.815365,
      "lon": 10.216287,
      "modes": [
        "bus"
      ],
      "stopType": "bus"
    },
    {
      "id": "NSR:Quay:27623",
      "stopPlaceId": "NSR:Quay:27623",
      "name": "Stoppen",
      "lat": 59.759964,
      "lon": 10.233649,
      "modes": [
        "bus"
      ],
      "stopType": "bus"
    },
    {
      "id": "NSR:Quay:27629",
      "stopPlaceId": "NSR:Quay:27629",
      "name": "Stoppen idrettspark",
      "lat": 59.763875,
      "lon": 10.235776,
      "modes": [
        "bus"
      ],
      "stopType": "bus"
    },
    {
      "id": "NSR:Quay:27631",
      "stopPlaceId": "NSR:Quay:27631",
      "name": "Sandakerkrysset",
      "lat": 59.768184,
      "lon": 10.237761,
      "modes": [
        "bus"
      ],
      "stopType": "bus"
    },
    {
      "id": "NSR:Quay:27636",
      "stopPlaceId": "NSR:Quay:27636",
      "name": "Sandakertoppen",
      "lat": 59.770233,
      "lon": 10.237745,
      "modes": [
        "bus"
      ],
      "stopType": "bus"
    },
    {
      "id": "NSR:Quay:27643",
      "stopPlaceId": "NSR:Quay:27643",
      "name": "Østvold",
      "lat": 59.772896,
      "lon": 10.235272,
      "modes": [
        "bus"
      ],
      "stopType": "bus"
    },
    {
      "id": "NSR:Quay:27649",
      "stopPlaceId": "NSR:Quay:27649",
      "name": "Grette Frukt",
      "lat": 59.775943,
      "lon": 10.2337,
      "modes": [
        "bus"
      ],
      "stopType": "bus"
    },
    {
      "id": "NSR:Quay:27656",
      "stopPlaceId": "NSR:Quay:27656",
      "name": "Gluggen",
      "lat": 59.778728,
      "lon": 10.231821,
      "modes": [
        "bus"
      ],
      "stopType": "bus"
    },
    {
      "id": "NSR:Quay:27660",
      "stopPlaceId": "NSR:Quay:27660",
      "name": "Nedre Frogner",
      "lat": 59.77934,
      "lon": 10.23749,
      "modes": [
        "bus"
      ],
      "stopType": "bus"
    },
    {
      "id": "NSR:Quay:27665",
      "stopPlaceId": "NSR:Quay:27665",
      "name": "Heggtoppen",
      "lat": 59.78088,
      "lon": 10.243268,
      "modes": [
        "bus"
      ],
      "stopType": "bus"
    },
    {
      "id": "NSR:Quay:29260",
      "stopPlaceId": "NSR:Quay:29260",
      "name": "Baneveien",
      "lat": 59.815575,
      "lon": 10.218812,
      "modes": [
        "bus"
      ],
      "stopType": "bus"
    },
    {
      "id": "NSR:Quay:27771",
      "stopPlaceId": "NSR:Quay:27771",
      "name": "Kortnes",
      "lat": 59.838165,
      "lon": 10.237034,
      "modes": [
        "bus"
      ],
      "stopType": "bus"
    },
    {
      "id": "NSR:Quay:27766",
      "stopPlaceId": "NSR:Quay:27766",
      "name": "Åmotveien/Vestsideveien kryss",
      "lat": 59.851353,
      "lon": 10.21631,
      "modes": [
        "bus"
      ],
      "stopType": "bus"
    },
    {
      "id": "NSR:Quay:29088",
      "stopPlaceId": "NSR:Quay:29088",
      "name": "Tranbylia",
      "lat": 59.813084,
      "lon": 10.270774,
      "modes": [
        "bus"
      ],
      "stopType": "bus"
    },
    {
      "id": "NSR:Quay:29096",
      "stopPlaceId": "NSR:Quay:29096",
      "name": "Haugerudbråtan",
      "lat": 59.816245,
      "lon": 10.273177,
      "modes": [
        "bus"
      ],
      "stopType": "bus"
    },
    {
      "id": "NSR:Quay:27993",
      "stopPlaceId": "NSR:Quay:27993",
      "name": "Hennumhagan",
      "lat": 59.818471,
      "lon": 10.276672,
      "modes": [
        "bus"
      ],
      "stopType": "bus"
    },
    {
      "id": "NSR:Quay:28000",
      "stopPlaceId": "NSR:Quay:28000",
      "name": "Martinshaugen",
      "lat": 59.82109,
      "lon": 10.27779,
      "modes": [
        "bus"
      ],
      "stopType": "bus"
    },
    {
      "id": "NSR:Quay:28016",
      "stopPlaceId": "NSR:Quay:28016",
      "name": "Hennumsbråtan",
      "lat": 59.823794,
      "lon": 10.278804,
      "modes": [
        "bus"
      ],
      "stopType": "bus"
    },
    {
      "id": "NSR:Quay:28024",
      "stopPlaceId": "NSR:Quay:28024",
      "name": "Slåttebråtan",
      "lat": 59.827345,
      "lon": 10.279327,
      "modes": [
        "bus"
      ],
      "stopType": "bus"
    },
    {
      "id": "NSR:Quay:28005",
      "stopPlaceId": "NSR:Quay:28005",
      "name": "Ringveien Hoppbakken",
      "lat": 59.827639,
      "lon": 10.285175,
      "modes": [
        "bus"
      ],
      "stopType": "bus"
    },
    {
      "id": "NSR:Quay:28010",
      "stopPlaceId": "NSR:Quay:28010",
      "name": "Haugane",
      "lat": 59.825775,
      "lon": 10.287044,
      "modes": [
        "bus"
      ],
      "stopType": "bus"
    },
    {
      "id": "NSR:Quay:28027",
      "stopPlaceId": "NSR:Quay:28027",
      "name": "Maurrudløkka",
      "lat": 59.823914,
      "lon": 10.287876,
      "modes": [
        "bus"
      ],
      "stopType": "bus"
    },
    {
      "id": "NSR:Quay:28034",
      "stopPlaceId": "NSR:Quay:28034",
      "name": "Nygårdskogen",
      "lat": 59.821641,
      "lon": 10.289504,
      "modes": [
        "bus"
      ],
      "stopType": "bus"
    },
    {
      "id": "NSR:Quay:28041",
      "stopPlaceId": "NSR:Quay:28041",
      "name": "Svenskerud",
      "lat": 59.818931,
      "lon": 10.290633,
      "modes": [
        "bus"
      ],
      "stopType": "bus"
    },
    {
      "id": "NSR:Quay:28048",
      "stopPlaceId": "NSR:Quay:28048",
      "name": "Larsehagan",
      "lat": 59.817364,
      "lon": 10.289217,
      "modes": [
        "bus"
      ],
      "stopType": "bus"
    },
    {
      "id": "NSR:Quay:29113",
      "stopPlaceId": "NSR:Quay:29113",
      "name": "Pukkverket",
      "lat": 59.814769,
      "lon": 10.292427,
      "modes": [
        "bus"
      ],
      "stopType": "bus"
    },
    {
      "id": "NSR:Quay:29119",
      "stopPlaceId": "NSR:Quay:29119",
      "name": "Gjellebekk",
      "lat": 59.808546,
      "lon": 10.298398,
      "modes": [
        "bus"
      ],
      "stopType": "bus"
    },
    {
      "id": "NSR:Quay:29124",
      "stopPlaceId": "NSR:Quay:29124",
      "name": "Liertoppen Kjøpesenter A",
      "lat": 59.809241,
      "lon": 10.301185,
      "modes": [
        "bus"
      ],
      "stopType": "bus"
    },
    {
      "id": "NSR:Quay:29128",
      "stopPlaceId": "NSR:Quay:29128",
      "name": "Liertoppen Kjøpesenter B",
      "lat": 59.81078,
      "lon": 10.30623,
      "modes": [
        "bus"
      ],
      "stopType": "bus"
    },
    {
      "id": "NSR:Quay:29137",
      "stopPlaceId": "NSR:Quay:29137",
      "name": "Tveita Lierskogen",
      "lat": 59.813178,
      "lon": 10.313491,
      "modes": [
        "bus"
      ],
      "stopType": "bus"
    },
    {
      "id": "NSR:Quay:29140",
      "stopPlaceId": "NSR:Quay:29140",
      "name": "Avstikkeren",
      "lat": 59.817677,
      "lon": 10.330131,
      "modes": [
        "bus"
      ],
      "stopType": "bus"
    },
    {
      "id": "NSR:Quay:29146",
      "stopPlaceId": "NSR:Quay:29146",
      "name": "Heiatoppen",
      "lat": 59.819006,
      "lon": 10.340329,
      "modes": [
        "bus"
      ],
      "stopType": "bus"
    },
    {
      "id": "NSR:Quay:28151",
      "stopPlaceId": "NSR:Quay:28151",
      "name": "Stabæk",
      "lat": 59.818928,
      "lon": 10.347544,
      "modes": [
        "bus"
      ],
      "stopType": "bus"
    },
    {
      "id": "NSR:Quay:110168",
      "stopPlaceId": "NSR:Quay:110168",
      "name": "Grobråtenveien nord",
      "lat": 59.818238,
      "lon": 10.356008,
      "modes": [
        "bus"
      ],
      "stopType": "bus"
    },
    {
      "id": "NSR:Quay:110162",
      "stopPlaceId": "NSR:Quay:110162",
      "name": "Engelsrud terrasse",
      "lat": 59.819045,
      "lon": 10.362194,
      "modes": [
        "bus"
      ],
      "stopType": "bus"
    },
    {
      "id": "NSR:Quay:5964",
      "stopPlaceId": "NSR:Quay:5964",
      "name": "Engelsrud",
      "lat": 59.819782,
      "lon": 10.365904,
      "modes": [
        "bus"
      ],
      "stopType": "bus"
    },
    {
      "id": "NSR:Quay:110170",
      "stopPlaceId": "NSR:Quay:110170",
      "name": "Yggesethbakken",
      "lat": 59.821841,
      "lon": 10.374008,
      "modes": [
        "bus"
      ],
      "stopType": "bus"
    },
    {
      "id": "NSR:Quay:110165",
      "stopPlaceId": "NSR:Quay:110165",
      "name": "Liahagen",
      "lat": 59.824821,
      "lon": 10.378447,
      "modes": [
        "bus"
      ],
      "stopType": "bus"
    },
    {
      "id": "NSR:Quay:110158",
      "stopPlaceId": "NSR:Quay:110158",
      "name": "Skanseløkka",
      "lat": 59.828033,
      "lon": 10.384734,
      "modes": [
        "bus"
      ],
      "stopType": "bus"
    },
    {
      "id": "NSR:Quay:110160",
      "stopPlaceId": "NSR:Quay:110160",
      "name": "Østre Jansrud",
      "lat": 59.829299,
      "lon": 10.392475,
      "modes": [
        "bus"
      ],
      "stopType": "bus"
    },
    {
      "id": "NSR:Quay:110164",
      "stopPlaceId": "NSR:Quay:110164",
      "name": "Brendsrudroa",
      "lat": 59.829616,
      "lon": 10.399791,
      "modes": [
        "bus"
      ],
      "stopType": "bus"
    },
    {
      "id": "NSR:Quay:5918",
      "stopPlaceId": "NSR:Quay:5918",
      "name": "Drengsrud skole",
      "lat": 59.828542,
      "lon": 10.407859,
      "modes": [
        "bus"
      ],
      "stopType": "bus"
    },
    {
      "id": "NSR:Quay:5894",
      "stopPlaceId": "NSR:Quay:5894",
      "name": "Oreholtet",
      "lat": 59.830725,
      "lon": 10.417737,
      "modes": [
        "bus"
      ],
      "stopType": "bus"
    },
    {
      "id": "NSR:Quay:5743",
      "stopPlaceId": "NSR:Quay:5743",
      "name": "Hagaløkka",
      "lat": 59.833157,
      "lon": 10.423027,
      "modes": [
        "bus",
        "coach service"
      ],
      "stopType": "multimodal"
    },
    {
      "id": "NSR:Quay:5736",
      "stopPlaceId": "NSR:Quay:5736",
      "name": "Asker stasjon",
      "lat": 59.832799,
      "lon": 10.433098,
      "modes": [
        "bus"
      ],
      "stopType": "bus"
    },
    {
      "id": "NSR:Quay:5733",
      "stopPlaceId": "NSR:Quay:5733",
      "name": "Asker stasjon",
      "lat": 59.833018,
      "lon": 10.433372,
      "modes": [
        "bus"
      ],
      "stopType": "bus"
    },
    {
      "id": "NSR:Quay:5745",
      "stopPlaceId": "NSR:Quay:5745",
      "name": "Hagaløkka",
      "lat": 59.833471,
      "lon": 10.424338,
      "modes": [
        "bus",
        "coach service"
      ],
      "stopType": "multimodal"
    },
    {
      "id": "NSR:Quay:5895",
      "stopPlaceId": "NSR:Quay:5895",
      "name": "Oreholtet",
      "lat": 59.83057,
      "lon": 10.417067,
      "modes": [
        "bus"
      ],
      "stopType": "bus"
    },
    {
      "id": "NSR:Quay:5919",
      "stopPlaceId": "NSR:Quay:5919",
      "name": "Drengsrud skole",
      "lat": 59.828746,
      "lon": 10.408146,
      "modes": [
        "bus"
      ],
      "stopType": "bus"
    },
    {
      "id": "NSR:Quay:5875",
      "stopPlaceId": "NSR:Quay:5875",
      "name": "Brendsrudroa",
      "lat": 59.829545,
      "lon": 10.398602,
      "modes": [
        "bus"
      ],
      "stopType": "bus"
    },
    {
      "id": "NSR:Quay:110161",
      "stopPlaceId": "NSR:Quay:110161",
      "name": "Østre Jansrud",
      "lat": 59.829404,
      "lon": 10.391837,
      "modes": [
        "bus"
      ],
      "stopType": "bus"
    },
    {
      "id": "NSR:Quay:110159",
      "stopPlaceId": "NSR:Quay:110159",
      "name": "Skanseløkka",
      "lat": 59.827278,
      "lon": 10.383115,
      "modes": [
        "bus"
      ],
      "stopType": "bus"
    },
    {
      "id": "NSR:Quay:110166",
      "stopPlaceId": "NSR:Quay:110166",
      "name": "Liahagen",
      "lat": 59.824824,
      "lon": 10.378215,
      "modes": [
        "bus"
      ],
      "stopType": "bus"
    },
    {
      "id": "NSR:Quay:110169",
      "stopPlaceId": "NSR:Quay:110169",
      "name": "Yggesethbakken",
      "lat": 59.821817,
      "lon": 10.373704,
      "modes": [
        "bus"
      ],
      "stopType": "bus"
    },
    {
      "id": "NSR:Quay:5965",
      "stopPlaceId": "NSR:Quay:5965",
      "name": "Engelsrud",
      "lat": 59.819935,
      "lon": 10.366016,
      "modes": [
        "bus"
      ],
      "stopType": "bus"
    },
    {
      "id": "NSR:Quay:110163",
      "stopPlaceId": "NSR:Quay:110163",
      "name": "Engelsrud terrasse",
      "lat": 59.818893,
      "lon": 10.35974,
      "modes": [
        "bus"
      ],
      "stopType": "bus"
    },
    {
      "id": "NSR:Quay:110167",
      "stopPlaceId": "NSR:Quay:110167",
      "name": "Grobråtenveien nord",
      "lat": 59.81851,
      "lon": 10.356626,
      "modes": [
        "bus"
      ],
      "stopType": "bus"
    },
    {
      "id": "NSR:Quay:28153",
      "stopPlaceId": "NSR:Quay:28153",
      "name": "Stabæk",
      "lat": 59.819121,
      "lon": 10.346999,
      "modes": [
        "bus"
      ],
      "stopType": "bus"
    },
    {
      "id": "NSR:Quay:29149",
      "stopPlaceId": "NSR:Quay:29149",
      "name": "Heiatoppen",
      "lat": 59.818719,
      "lon": 10.337679,
      "modes": [
        "bus"
      ],
      "stopType": "bus"
    },
    {
      "id": "NSR:Quay:29141",
      "stopPlaceId": "NSR:Quay:29141",
      "name": "Avstikkeren",
      "lat": 59.817601,
      "lon": 10.329013,
      "modes": [
        "bus"
      ],
      "stopType": "bus"
    },
    {
      "id": "NSR:Quay:29136",
      "stopPlaceId": "NSR:Quay:29136",
      "name": "Tveita Lierskogen",
      "lat": 59.813079,
      "lon": 10.312801,
      "modes": [
        "bus"
      ],
      "stopType": "bus"
    },
    {
      "id": "NSR:Quay:29129",
      "stopPlaceId": "NSR:Quay:29129",
      "name": "Liertoppen Kjøpesenter B",
      "lat": 59.8107,
      "lon": 10.304958,
      "modes": [
        "bus"
      ],
      "stopType": "bus"
    },
    {
      "id": "NSR:Quay:29125",
      "stopPlaceId": "NSR:Quay:29125",
      "name": "Liertoppen Kjøpesenter A",
      "lat": 59.80932,
      "lon": 10.300959,
      "modes": [
        "bus"
      ],
      "stopType": "bus"
    },
    {
      "id": "NSR:Quay:29116",
      "stopPlaceId": "NSR:Quay:29116",
      "name": "Gjellebekk",
      "lat": 59.808693,
      "lon": 10.298634,
      "modes": [
        "bus"
      ],
      "stopType": "bus"
    },
    {
      "id": "NSR:Quay:29111",
      "stopPlaceId": "NSR:Quay:29111",
      "name": "Pukkverket",
      "lat": 59.815128,
      "lon": 10.292079,
      "modes": [
        "bus"
      ],
      "stopType": "bus"
    },
    {
      "id": "NSR:Quay:28047",
      "stopPlaceId": "NSR:Quay:28047",
      "name": "Larsehagan",
      "lat": 59.816731,
      "lon": 10.28783,
      "modes": [
        "bus"
      ],
      "stopType": "bus"
    },
    {
      "id": "NSR:Quay:28042",
      "stopPlaceId": "NSR:Quay:28042",
      "name": "Svenskerud",
      "lat": 59.818866,
      "lon": 10.290821,
      "modes": [
        "bus"
      ],
      "stopType": "bus"
    },
    {
      "id": "NSR:Quay:28033",
      "stopPlaceId": "NSR:Quay:28033",
      "name": "Nygårdskogen",
      "lat": 59.82157,
      "lon": 10.289729,
      "modes": [
        "bus"
      ],
      "stopType": "bus"
    },
    {
      "id": "NSR:Quay:28028",
      "stopPlaceId": "NSR:Quay:28028",
      "name": "Maurrudløkka",
      "lat": 59.823651,
      "lon": 10.288205,
      "modes": [
        "bus"
      ],
      "stopType": "bus"
    },
    {
      "id": "NSR:Quay:28009",
      "stopPlaceId": "NSR:Quay:28009",
      "name": "Haugane",
      "lat": 59.825302,
      "lon": 10.287481,
      "modes": [
        "bus"
      ],
      "stopType": "bus"
    },
    {
      "id": "NSR:Quay:28006",
      "stopPlaceId": "NSR:Quay:28006",
      "name": "Ringveien Hoppbakken",
      "lat": 59.8283,
      "lon": 10.2847,
      "modes": [
        "bus"
      ],
      "stopType": "bus"
    },
    {
      "id": "NSR:Quay:28022",
      "stopPlaceId": "NSR:Quay:28022",
      "name": "Slåttebråtan",
      "lat": 59.827751,
      "lon": 10.28076,
      "modes": [
        "bus"
      ],
      "stopType": "bus"
    },
    {
      "id": "NSR:Quay:28015",
      "stopPlaceId": "NSR:Quay:28015",
      "name": "Hennumsbråtan",
      "lat": 59.82307,
      "lon": 10.278252,
      "modes": [
        "bus"
      ],
      "stopType": "bus"
    },
    {
      "id": "NSR:Quay:27999",
      "stopPlaceId": "NSR:Quay:27999",
      "name": "Martinshaugen",
      "lat": 59.820655,
      "lon": 10.277461,
      "modes": [
        "bus"
      ],
      "stopType": "bus"
    },
    {
      "id": "NSR:Quay:27997",
      "stopPlaceId": "NSR:Quay:27997",
      "name": "Hennumhagan",
      "lat": 59.818354,
      "lon": 10.276197,
      "modes": [
        "bus"
      ],
      "stopType": "bus"
    },
    {
      "id": "NSR:Quay:29094",
      "stopPlaceId": "NSR:Quay:29094",
      "name": "Haugerudbråtan",
      "lat": 59.816001,
      "lon": 10.272193,
      "modes": [
        "bus"
      ],
      "stopType": "bus"
    },
    {
      "id": "NSR:Quay:29089",
      "stopPlaceId": "NSR:Quay:29089",
      "name": "Tranbylia",
      "lat": 59.812826,
      "lon": 10.270559,
      "modes": [
        "bus"
      ],
      "stopType": "bus"
    },
    {
      "id": "NSR:Quay:29077",
      "stopPlaceId": "NSR:Quay:29077",
      "name": "Bjørkesvingen",
      "lat": 59.806891,
      "lon": 10.267617,
      "modes": [
        "bus"
      ],
      "stopType": "bus"
    },
    {
      "id": "NSR:Quay:28144",
      "stopPlaceId": "NSR:Quay:28144",
      "name": "Rypeveien",
      "lat": 59.819571,
      "lon": 10.334117,
      "modes": [
        "bus"
      ],
      "stopType": "bus"
    },
    {
      "id": "NSR:Quay:28138",
      "stopPlaceId": "NSR:Quay:28138",
      "name": "Lierskogen sentrum",
      "lat": 59.819834,
      "lon": 10.330305,
      "modes": [
        "bus"
      ],
      "stopType": "bus"
    },
    {
      "id": "NSR:Quay:28135",
      "stopPlaceId": "NSR:Quay:28135",
      "name": "Ovenstadvegen",
      "lat": 59.819728,
      "lon": 10.327972,
      "modes": [
        "bus"
      ],
      "stopType": "bus"
    },
    {
      "id": "NSR:Quay:28157",
      "stopPlaceId": "NSR:Quay:28157",
      "name": "Gartneriet",
      "lat": 59.817706,
      "lon": 10.327473,
      "modes": [
        "bus"
      ],
      "stopType": "bus"
    },
    {
      "id": "NSR:Quay:28052",
      "stopPlaceId": "NSR:Quay:28052",
      "name": "Husebygata",
      "lat": 59.753657,
      "lon": 10.272482,
      "modes": [
        "bus"
      ],
      "stopType": "bus"
    },
    {
      "id": "NSR:Quay:28062",
      "stopPlaceId": "NSR:Quay:28062",
      "name": "Gullaugkrysset",
      "lat": 59.751903,
      "lon": 10.287961,
      "modes": [
        "bus"
      ],
      "stopType": "bus"
    },
    {
      "id": "NSR:Quay:28057",
      "stopPlaceId": "NSR:Quay:28057",
      "name": "Linnesbakken",
      "lat": 59.756548,
      "lon": 10.289198,
      "modes": [
        "bus"
      ],
      "stopType": "bus"
    },
    {
      "id": "NSR:Quay:28083",
      "stopPlaceId": "NSR:Quay:28083",
      "name": "Tuverudstien",
      "lat": 59.758748,
      "lon": 10.288836,
      "modes": [
        "bus"
      ],
      "stopType": "bus"
    },
    {
      "id": "NSR:Quay:28076",
      "stopPlaceId": "NSR:Quay:28076",
      "name": "Lier stasjon",
      "lat": 59.7624,
      "lon": 10.2893,
      "modes": [
        "bus",
        "rail"
      ],
      "stopType": "multimodal"
    },
    {
      "id": "NSR:Quay:28069",
      "stopPlaceId": "NSR:Quay:28069",
      "name": "Lierkroa",
      "lat": 59.767702,
      "lon": 10.283056,
      "modes": [
        "bus"
      ],
      "stopType": "bus"
    },
    {
      "id": "NSR:Quay:28086",
      "stopPlaceId": "NSR:Quay:28086",
      "name": "Mellomveien",
      "lat": 59.770196,
      "lon": 10.284426,
      "modes": [
        "bus"
      ],
      "stopType": "bus"
    },
    {
      "id": "NSR:Quay:28093",
      "stopPlaceId": "NSR:Quay:28093",
      "name": "Sommero",
      "lat": 59.77322,
      "lon": 10.28402,
      "modes": [
        "bus"
      ],
      "stopType": "bus"
    },
    {
      "id": "NSR:Quay:28095",
      "stopPlaceId": "NSR:Quay:28095",
      "name": "Reistad",
      "lat": 59.7778,
      "lon": 10.28207,
      "modes": [
        "bus"
      ],
      "stopType": "bus"
    },
    {
      "id": "NSR:Quay:28103",
      "stopPlaceId": "NSR:Quay:28103",
      "name": "Store Reistad",
      "lat": 59.78108,
      "lon": 10.28113,
      "modes": [
        "bus"
      ],
      "stopType": "bus"
    },
    {
      "id": "NSR:Quay:28108",
      "stopPlaceId": "NSR:Quay:28108",
      "name": "Hellumsand",
      "lat": 59.784471,
      "lon": 10.277973,
      "modes": [
        "bus"
      ],
      "stopType": "bus"
    },
    {
      "id": "NSR:Quay:28113",
      "stopPlaceId": "NSR:Quay:28113",
      "name": "Stokkeveien",
      "lat": 59.78686,
      "lon": 10.27606,
      "modes": [
        "bus"
      ],
      "stopType": "bus"
    },
    {
      "id": "NSR:Quay:28119",
      "stopPlaceId": "NSR:Quay:28119",
      "name": "Utsikten",
      "lat": 59.7908,
      "lon": 10.2765,
      "modes": [
        "bus"
      ],
      "stopType": "bus"
    },
    {
      "id": "NSR:Quay:28125",
      "stopPlaceId": "NSR:Quay:28125",
      "name": "Bråtasvingen",
      "lat": 59.79556,
      "lon": 10.27727,
      "modes": [
        "bus"
      ],
      "stopType": "bus"
    },
    {
      "id": "NSR:Quay:28129",
      "stopPlaceId": "NSR:Quay:28129",
      "name": "Damtjern",
      "lat": 59.802113,
      "lon": 10.287656,
      "modes": [
        "bus"
      ],
      "stopType": "bus"
    },
    {
      "id": "NSR:Quay:28147",
      "stopPlaceId": "NSR:Quay:28147",
      "name": "Heiatoppen nord",
      "lat": 59.819435,
      "lon": 10.337138,
      "modes": [
        "bus"
      ],
      "stopType": "bus"
    },
    {
      "id": "NSR:Quay:28130",
      "stopPlaceId": "NSR:Quay:28130",
      "name": "Damtjern",
      "lat": 59.802136,
      "lon": 10.286529,
      "modes": [
        "bus"
      ],
      "stopType": "bus"
    },
    {
      "id": "NSR:Quay:28126",
      "stopPlaceId": "NSR:Quay:28126",
      "name": "Bråtasvingen",
      "lat": 59.796,
      "lon": 10.27719,
      "modes": [
        "bus"
      ],
      "stopType": "bus"
    },
    {
      "id": "NSR:Quay:28120",
      "stopPlaceId": "NSR:Quay:28120",
      "name": "Utsikten",
      "lat": 59.7905,
      "lon": 10.2754,
      "modes": [
        "bus"
      ],
      "stopType": "bus"
    },
    {
      "id": "NSR:Quay:28115",
      "stopPlaceId": "NSR:Quay:28115",
      "name": "Stokkeveien",
      "lat": 59.78675,
      "lon": 10.27583,
      "modes": [
        "bus"
      ],
      "stopType": "bus"
    },
    {
      "id": "NSR:Quay:28109",
      "stopPlaceId": "NSR:Quay:28109",
      "name": "Hellumsand",
      "lat": 59.783802,
      "lon": 10.278238,
      "modes": [
        "bus"
      ],
      "stopType": "bus"
    },
    {
      "id": "NSR:Quay:28104",
      "stopPlaceId": "NSR:Quay:28104",
      "name": "Store Reistad",
      "lat": 59.77984,
      "lon": 10.28086,
      "modes": [
        "bus"
      ],
      "stopType": "bus"
    },
    {
      "id": "NSR:Quay:28098",
      "stopPlaceId": "NSR:Quay:28098",
      "name": "Reistad",
      "lat": 59.77755,
      "lon": 10.28213,
      "modes": [
        "bus"
      ],
      "stopType": "bus"
    },
    {
      "id": "NSR:Quay:28092",
      "stopPlaceId": "NSR:Quay:28092",
      "name": "Sommero",
      "lat": 59.77265,
      "lon": 10.28395,
      "modes": [
        "bus"
      ],
      "stopType": "bus"
    },
    {
      "id": "NSR:Quay:28087",
      "stopPlaceId": "NSR:Quay:28087",
      "name": "Mellomveien",
      "lat": 59.770809,
      "lon": 10.284281,
      "modes": [
        "bus"
      ],
      "stopType": "bus"
    },
    {
      "id": "NSR:Quay:28073",
      "stopPlaceId": "NSR:Quay:28073",
      "name": "Lierkroa",
      "lat": 59.767486,
      "lon": 10.283117,
      "modes": [
        "bus"
      ],
      "stopType": "bus"
    },
    {
      "id": "NSR:Quay:28077",
      "stopPlaceId": "NSR:Quay:28077",
      "name": "Lier stasjon",
      "lat": 59.761563,
      "lon": 10.289415,
      "modes": [
        "bus",
        "rail"
      ],
      "stopType": "multimodal"
    },
    {
      "id": "NSR:Quay:28082",
      "stopPlaceId": "NSR:Quay:28082",
      "name": "Tuverudstien",
      "lat": 59.758731,
      "lon": 10.288696,
      "modes": [
        "bus"
      ],
      "stopType": "bus"
    },
    {
      "id": "NSR:Quay:28056",
      "stopPlaceId": "NSR:Quay:28056",
      "name": "Linnesbakken",
      "lat": 59.755747,
      "lon": 10.28923,
      "modes": [
        "bus"
      ],
      "stopType": "bus"
    },
    {
      "id": "NSR:Quay:28063",
      "stopPlaceId": "NSR:Quay:28063",
      "name": "Gullaugkrysset",
      "lat": 59.752004,
      "lon": 10.286864,
      "modes": [
        "bus"
      ],
      "stopType": "bus"
    },
    {
      "id": "NSR:Quay:28054",
      "stopPlaceId": "NSR:Quay:28054",
      "name": "Husebygata",
      "lat": 59.753939,
      "lon": 10.271192,
      "modes": [
        "bus"
      ],
      "stopType": "bus"
    },
    {
      "id": "NSR:Quay:29192",
      "stopPlaceId": "NSR:Quay:29192",
      "name": "Gilhus",
      "lat": 59.752578,
      "lon": 10.269065,
      "modes": [
        "bus"
      ],
      "stopType": "bus"
    },
    {
      "id": "NSR:Quay:29215",
      "stopPlaceId": "NSR:Quay:29215",
      "name": "Gullaug skole",
      "lat": 59.7503,
      "lon": 10.2816,
      "modes": [
        "bus"
      ],
      "stopType": "bus"
    },
    {
      "id": "NSR:Quay:109529",
      "stopPlaceId": "NSR:Quay:109529",
      "name": "Reistadlia",
      "lat": 59.777229,
      "lon": 10.283026,
      "modes": [
        "bus"
      ],
      "stopType": "bus"
    },
    {
      "id": "NSR:Quay:30053",
      "stopPlaceId": "NSR:Quay:30053",
      "name": "Snyta",
      "lat": 60.1368,
      "lon": 10.2032,
      "modes": [
        "bus"
      ],
      "stopType": "bus"
    },
    {
      "id": "NSR:Quay:30057",
      "stopPlaceId": "NSR:Quay:30057",
      "name": "Bjørkemoen",
      "lat": 60.1431,
      "lon": 10.2089,
      "modes": [
        "bus"
      ],
      "stopType": "bus"
    },
    {
      "id": "NSR:Quay:30062",
      "stopPlaceId": "NSR:Quay:30062",
      "name": "Pålsgårdshøgda",
      "lat": 60.146,
      "lon": 10.2117,
      "modes": [
        "bus"
      ],
      "stopType": "bus"
    },
    {
      "id": "NSR:Quay:30066",
      "stopPlaceId": "NSR:Quay:30066",
      "name": "Styggdalen",
      "lat": 60.15032,
      "lon": 10.21699,
      "modes": [
        "bus"
      ],
      "stopType": "bus"
    },
    {
      "id": "NSR:Quay:30070",
      "stopPlaceId": "NSR:Quay:30070",
      "name": "Berenga",
      "lat": 60.1533,
      "lon": 10.2252,
      "modes": [
        "bus"
      ],
      "stopType": "bus"
    },
    {
      "id": "NSR:Quay:30072",
      "stopPlaceId": "NSR:Quay:30072",
      "name": "Tolpinrud",
      "lat": 60.16063,
      "lon": 10.23362,
      "modes": [
        "bus"
      ],
      "stopType": "bus"
    },
    {
      "id": "NSR:Quay:27213",
      "stopPlaceId": "NSR:Quay:27213",
      "name": "Hvelven omsorgssenter",
      "lat": 60.16324,
      "lon": 10.23973,
      "modes": [
        "bus"
      ],
      "stopType": "bus"
    },
    {
      "id": "NSR:Quay:30081",
      "stopPlaceId": "NSR:Quay:30081",
      "name": "Ringerike Folkehøgskole",
      "lat": 60.16365,
      "lon": 10.24399,
      "modes": [
        "bus"
      ],
      "stopType": "bus"
    },
    {
      "id": "NSR:Quay:30077",
      "stopPlaceId": "NSR:Quay:30077",
      "name": "Politihuset",
      "lat": 60.16444,
      "lon": 10.25172,
      "modes": [
        "bus"
      ],
      "stopType": "bus"
    },
    {
      "id": "NSR:Quay:101775",
      "stopPlaceId": "NSR:Quay:101775",
      "name": "Hønefoss sentrum",
      "lat": 60.16504,
      "lon": 10.25716,
      "modes": [
        "bus"
      ],
      "stopType": "bus"
    },
    {
      "id": "NSR:Quay:29625",
      "stopPlaceId": "NSR:Quay:29625",
      "name": "Hønefoss sentrum",
      "lat": 60.164596,
      "lon": 10.257644,
      "modes": [
        "bus"
      ],
      "stopType": "bus"
    },
    {
      "id": "NSR:Quay:30076",
      "stopPlaceId": "NSR:Quay:30076",
      "name": "Politihuset",
      "lat": 60.16477,
      "lon": 10.25229,
      "modes": [
        "bus"
      ],
      "stopType": "bus"
    },
    {
      "id": "NSR:Quay:30080",
      "stopPlaceId": "NSR:Quay:30080",
      "name": "Ringerike Folkehøgskole",
      "lat": 60.16374,
      "lon": 10.24418,
      "modes": [
        "bus"
      ],
      "stopType": "bus"
    },
    {
      "id": "NSR:Quay:27214",
      "stopPlaceId": "NSR:Quay:27214",
      "name": "Hvelven omsorgssenter",
      "lat": 60.1632,
      "lon": 10.2385,
      "modes": [
        "bus"
      ],
      "stopType": "bus"
    },
    {
      "id": "NSR:Quay:30073",
      "stopPlaceId": "NSR:Quay:30073",
      "name": "Tolpinrud",
      "lat": 60.16015,
      "lon": 10.23331,
      "modes": [
        "bus"
      ],
      "stopType": "bus"
    },
    {
      "id": "NSR:Quay:30069",
      "stopPlaceId": "NSR:Quay:30069",
      "name": "Berenga",
      "lat": 60.1525,
      "lon": 10.2231,
      "modes": [
        "bus"
      ],
      "stopType": "bus"
    },
    {
      "id": "NSR:Quay:30065",
      "stopPlaceId": "NSR:Quay:30065",
      "name": "Styggdalen",
      "lat": 60.1503,
      "lon": 10.2159,
      "modes": [
        "bus"
      ],
      "stopType": "bus"
    },
    {
      "id": "NSR:Quay:30061",
      "stopPlaceId": "NSR:Quay:30061",
      "name": "Pålsgårdshøgda",
      "lat": 60.1456,
      "lon": 10.2113,
      "modes": [
        "bus"
      ],
      "stopType": "bus"
    },
    {
      "id": "NSR:Quay:30058",
      "stopPlaceId": "NSR:Quay:30058",
      "name": "Bjørkemoen",
      "lat": 60.143,
      "lon": 10.2085,
      "modes": [
        "bus"
      ],
      "stopType": "bus"
    },
    {
      "id": "NSR:Quay:30054",
      "stopPlaceId": "NSR:Quay:30054",
      "name": "Snyta",
      "lat": 60.137,
      "lon": 10.2031,
      "modes": [
        "bus"
      ],
      "stopType": "bus"
    },
    {
      "id": "NSR:Quay:29621",
      "stopPlaceId": "NSR:Quay:29621",
      "name": "Hønefoss sentrum",
      "lat": 60.164965,
      "lon": 10.257744,
      "modes": [
        "bus",
        "coach service"
      ],
      "stopType": "multimodal"
    },
    {
      "id": "NSR:Quay:26099",
      "stopPlaceId": "NSR:Quay:26099",
      "name": "Badstuvika",
      "lat": 59.982573,
      "lon": 10.248973,
      "modes": [
        "bus"
      ],
      "stopType": "bus"
    },
    {
      "id": "NSR:Quay:26098",
      "stopPlaceId": "NSR:Quay:26098",
      "name": "Pilterud",
      "lat": 59.987386,
      "lon": 10.232327,
      "modes": [
        "bus"
      ],
      "stopType": "bus"
    },
    {
      "id": "NSR:Quay:26091",
      "stopPlaceId": "NSR:Quay:26091",
      "name": "Kimerud skole",
      "lat": 59.990788,
      "lon": 10.222408,
      "modes": [
        "bus"
      ],
      "stopType": "bus"
    },
    {
      "id": "NSR:Quay:26088",
      "stopPlaceId": "NSR:Quay:26088",
      "name": "Kimerud",
      "lat": 59.992119,
      "lon": 10.210834,
      "modes": [
        "bus"
      ],
      "stopType": "bus"
    },
    {
      "id": "NSR:Quay:26092",
      "stopPlaceId": "NSR:Quay:26092",
      "name": "Kimerud skole",
      "lat": 59.99075,
      "lon": 10.222617,
      "modes": [
        "bus"
      ],
      "stopType": "bus"
    },
    {
      "id": "NSR:Quay:26097",
      "stopPlaceId": "NSR:Quay:26097",
      "name": "Pilterud",
      "lat": 59.987287,
      "lon": 10.2323,
      "modes": [
        "bus"
      ],
      "stopType": "bus"
    },
    {
      "id": "NSR:Quay:26100",
      "stopPlaceId": "NSR:Quay:26100",
      "name": "Badstuvika",
      "lat": 59.981792,
      "lon": 10.248951,
      "modes": [
        "bus"
      ],
      "stopType": "bus"
    },
    {
      "id": "NSR:Quay:29623",
      "stopPlaceId": "NSR:Quay:29623",
      "name": "Hønefoss sentrum",
      "lat": 60.164736,
      "lon": 10.257856,
      "modes": [
        "bus"
      ],
      "stopType": "bus"
    },
    {
      "id": "NSR:Quay:29101",
      "stopPlaceId": "NSR:Quay:29101",
      "name": "Joseph Kellers vei",
      "lat": 59.817131,
      "lon": 10.277807,
      "modes": [
        "bus"
      ],
      "stopType": "bus"
    },
    {
      "id": "NSR:Quay:29106",
      "stopPlaceId": "NSR:Quay:29106",
      "name": "Kværner",
      "lat": 59.816795,
      "lon": 10.285314,
      "modes": [
        "bus"
      ],
      "stopType": "bus"
    },
    {
      "id": "NSR:Quay:29150",
      "stopPlaceId": "NSR:Quay:29150",
      "name": "Heiatoppen",
      "lat": 59.818962,
      "lon": 10.337727,
      "modes": [
        "bus"
      ],
      "stopType": "bus"
    },
    {
      "id": "NSR:Quay:7376",
      "stopPlaceId": "NSR:Quay:7376",
      "name": "Kjørbo",
      "lat": 59.888335,
      "lon": 10.525584,
      "modes": [
        "bus"
      ],
      "stopType": "bus"
    },
    {
      "id": "NSR:Quay:7241",
      "stopPlaceId": "NSR:Quay:7241",
      "name": "Bærum rådhus",
      "lat": 59.889795,
      "lon": 10.527688,
      "modes": [
        "bus"
      ],
      "stopType": "bus"
    },
    {
      "id": "NSR:Quay:6982",
      "stopPlaceId": "NSR:Quay:6982",
      "name": "Høvik kirke",
      "lat": 59.89957,
      "lon": 10.578498,
      "modes": [
        "bus",
        "coach service"
      ],
      "stopType": "multimodal"
    },
    {
      "id": "NSR:Quay:6947",
      "stopPlaceId": "NSR:Quay:6947",
      "name": "Strand",
      "lat": 59.903956,
      "lon": 10.602547,
      "modes": [
        "bus",
        "coach service"
      ],
      "stopType": "multimodal"
    },
    {
      "id": "NSR:Quay:6487",
      "stopPlaceId": "NSR:Quay:6487",
      "name": "Oksenøyveien",
      "lat": 59.907173,
      "lon": 10.618973,
      "modes": [
        "bus",
        "coach service"
      ],
      "stopType": "multimodal"
    },
    {
      "id": "NSR:Quay:7905",
      "stopPlaceId": "NSR:Quay:7905",
      "name": "Lysaker stasjon",
      "lat": 59.912755,
      "lon": 10.638489,
      "modes": [
        "bus",
        "rail",
        "coach service"
      ],
      "stopType": "multimodal"
    },