id,name,lat,lon,stopPlaceId,cluster_id
NSR:Quay:99688,Vækerø,59.91565,10.651833,NSR:Quay:99688,544
NSR:Quay:11880,Maritim,59.918496,10.667065,NSR:Quay:11880,545
NSR:Quay:11829,Sjølyst,59.920456,10.676683,NSR:Quay:11829,546
NSR:Quay:7700,Vika atrium,59.910762,10.722139,NSR:Quay:7700,0
NSR:Quay:11969,Oslo bussterminal,59.91194,10.75671,NSR:Quay:11969,1
NSR:Quay:12002,Oslo bussterminal,59.911593,10.759892,NSR:Quay:12002,1
NSR:Quay:7699,Vika atrium,59.910836,10.723177,NSR:Quay:7699,0
NSR:Quay:11827,Sjølyst,59.921284,10.675004,NSR:Quay:11827,547
NSR:Quay:11881,Maritim,59.917987,10.661813,NSR:Quay:11881,548
NSR:Quay:11888,Vækerø,59.915522,10.649233,NSR:Quay:11888,549
NSR:Quay:7716,Filipstadveien,59.908621,10.713561,NSR:Quay:7716,2
NSR:Quay:11973,Oslo bussterminal,59.911573,10.760016,NSR:Quay:11973,1
NSR:Quay:10538,Tokerudbekken,59.975614,10.925713,NSR:Quay:10538,550
NSR:Quay:10535,Bånkallstubben,59.973823,10.919533,NSR:Quay:10535,3
NSR:Quay:10525,Rommi,59.966504,10.907471,NSR:Quay:10525,4
NSR:Quay:10477,Sveiva,59.963197,10.900294,NSR:Quay:10477,5
NSR:Quay:10484,Romsåsfoten,59.960329,10.89509,NSR:Quay:10484,6
NSR:Quay:10736,Grorudkrysset,59.959895,10.885214,NSR:Quay:10736,7
NSR:Quay:10697,Ammerud,59.95757,10.872195,NSR:Quay:10697,551
NSR:Quay:10656,Flaen,59.95456,10.867887,NSR:Quay:10656,8
NSR:Quay:10648,Rødtvet T,59.949219,10.854677,NSR:Quay:10648,552
NSR:Quay:10942,Veitvet,59.945286,10.843337,NSR:Quay:10942,553
NSR:Quay:10955,Linderudsletta,59.944213,10.835054,NSR:Quay:10955,9
NSR:Quay:10965,Øvre Lunden,59.943297,10.829223,NSR:Quay:10965,10
NSR:Quay:11002,Brobekk,59.944229,10.817298,NSR:Quay:11002,11
NSR:Quay:11059,Aker sykehus,59.940943,10.797761,NSR:Quay:11059,12
NSR:Quay:104044,Rosenhoff,59.930229,10.778122,NSR:Quay:104044,13
NSR:Quay:11036,Carl Berners plass,59.926789,10.77659,NSR:Quay:11036,14
NSR:Quay:10668,Kalbakkstubben,59.950835,10.866353,NSR:Quay:10668,15
NSR:Quay:10756,Bredtvet,59.946038,10.862968,NSR:Quay:10756,16
NSR:Quay:10770,Nedre Kalbakkvei,59.942634,10.858752,NSR:Quay:10770,17
NSR:Quay:10394,Alfasetveien,59.936854,10.858443,NSR:Quay:10394,18
NSR:Quay:10389,Kjelsrud,59.932836,10.859765,NSR:Quay:10389,19
NSR:Quay:11445,Alfaset,59.931259,10.856659,NSR:Quay:11445,20
NSR:Quay:11448,Alna senter,59.927892,10.846872,NSR:Quay:11448,21
NSR:Quay:11456,Tittutveien,59.925611,10.843635,NSR:Quay:11456,554
NSR:Quay:11454,Alnabruveien,59.924064,10.834655,NSR:Quay:11454,22
NSR:Quay:98653,Brobekkveien,59.93141,10.830102,NSR:Quay:98653,23
NSR:Quay:10866,Risløkkalléen,59.931377,10.824111,NSR:Quay:10866,555
NSR:Quay:10832,Økern T,59.928403,10.807017,NSR:Quay:10832,24
NSR:Quay:11079,Haslevangen,59.925157,10.79411,NSR:Quay:11079,25
NSR:Quay:11069,Hasle,59.923154,10.792469,NSR:Quay:11069,26
NSR:Quay:11116,Gladengveien,59.919768,10.793866,NSR:Quay:11116,27
NSR:Quay:11122,Valle,59.917122,10.800228,NSR:Quay:11122,556
NSR:Quay:114003,Fyrstikktorget,59.913954,10.799963,NSR:Quay:114003,28
NSR:Quay:11992,Oslo bussterminal,59.911632,10.759662,NSR:Quay:11992,1
NSR:Quay:11037,Carl Berners plass,59.926775,10.77674,NSR:Quay:11037,14
NSR:Quay:104045,Rosenhoff,59.930442,10.778288,NSR:Quay:104045,13
NSR:Quay:11064,Aker sykehus,59.940518,10.797257,NSR:Quay:11064,12
NSR:Quay:11001,Brobekk,59.944092,10.81788,NSR:Quay:11001,11
NSR:Quay:10964,Øvre Lunden,59.943009,10.828722,NSR:Quay:10964,10
NSR:Quay:10950,Linderudsletta,59.943794,10.83591,NSR:Quay:10950,9
NSR:Quay:10943,Veitvet,59.945662,10.846349,NSR:Quay:10943,557
NSR:Quay:10643,Rødtvet T,59.950901,10.860954,NSR:Quay:10643,558
NSR:Quay:10655,Flaen,59.954703,10.868635,NSR:Quay:10655,8
NSR:Quay:10698,Ammerud,59.958252,10.875027,NSR:Quay:10698,559
NSR:Quay:10739,Grorudkrysset,59.959695,10.886319,NSR:Quay:10739,7
NSR:Quay:10485,Romsåsfoten,59.96077,10.89638,NSR:Quay:10485,6
NSR:Quay:10478,Sveiva,59.963713,10.901712,NSR:Quay:10478,5
NSR:Quay:10526,Rommi,59.966876,10.908592,NSR:Quay:10526,4
NSR:Quay:10534,Bånkallstubben,59.973234,10.918771,NSR:Quay:10534,3
NSR:Quay:10539,Tokerudbekken,59.976054,10.92803,NSR:Quay:10539,560
NSR:Quay:11983,Oslo bussterminal,59.911647,10.759543,NSR:Quay:11983,1
NSR:Quay:11125,Fyrstikktorget,59.914728,10.800864,NSR:Quay:11125,28
NSR:Quay:11121,Valle,59.917938,10.798919,NSR:Quay:11121,561
NSR:Quay:11114,Gladengveien,59.9199,10.794126,NSR:Quay:11114,27
NSR:Quay:11070,Hasle,59.923478,10.792517,NSR:Quay:11070,26
NSR:Quay:11080,Haslevangen,59.925734,10.795607,NSR:Quay:11080,562
NSR:Quay:10835,Økern T,59.92845,10.806507,NSR:Quay:10835,24
NSR:Quay:10865,Risløkkalléen,59.93054,10.822552,NSR:Quay:10865,563
NSR:Quay:98652,Brobekkveien,59.931347,10.829985,NSR:Quay:98652,23
NSR:Quay:11453,Alnabruveien,59.923961,10.835845,NSR:Quay:11453,22
NSR:Quay:11446,Alna senter,59.927254,10.846438,NSR:Quay:11446,21
NSR:Quay:11442,Alfaset,59.930915,10.856037,NSR:Quay:11442,20
NSR:Quay:10396,Alfasetveien,59.937247,10.858658,NSR:Quay:10396,18
NSR:Quay:10771,Nedre Kalbakkvei,59.942855,10.85924,NSR:Quay:10771,17
NSR:Quay:10757,Bredtvet,59.94623,10.863266,NSR:Quay:10757,16
NSR:Quay:10669,Kalbakkstubben,59.95024,10.866291,NSR:Quay:10669,15
NSR:Quay:10301,Furuset skole,59.938012,10.891735,NSR:Quay:10301,29
NSR:Quay:10380,Trosterudkrysset,59.929404,10.865993,NSR:Quay:10380,30
NSR:Quay:11231,Ulvenkrysset,59.918964,10.816483,NSR:Quay:11231,31
NSR:Quay:11213,Teisenkrysset,59.917728,10.811757,NSR:Quay:11213,32
NSR:Quay:11131,Helsfyr T,59.913031,10.799925,NSR:Quay:11131,28
NSR:Quay:11084,Einars vei,59.92465,10.787115,NSR:Quay:11084,33
NSR:Quay:102015,Fougners vei,59.924853,10.780756,NSR:Quay:102015,34
NSR:Quay:11048,Carl Berners plass,59.926625,10.775209,NSR:Quay:11048,14
NSR:Quay:11860,Københavngata,59.929262,10.769448,NSR:Quay:11860,35
NSR:Quay:11852,Sannergata,59.928443,10.759636,NSR:Quay:11852,36
NSR:Quay:11551,Alexander Kiellands plass,59.927867,10.748896,NSR:Quay:11551,37
NSR:Quay:11559,Falck Ytters plass,59.925861,10.744693,NSR:Quay:11559,38
NSR:Quay:11531,St. Hanshaugen,59.923356,10.739447,NSR:Quay:11531,39
NSR:Quay:11514,Sofies plass,59.924256,10.735037,NSR:Quay:11514,40
NSR:Quay:11488,Bislett,59.925756,10.731738,NSR:Quay:11488,41
NSR:Quay:104066,Dalsbergstien,59.923608,10.731494,NSR:Quay:104066,42
NSR:Quay:104058,Holbergs plass,59.91864,10.734482,NSR:Quay:104058,43
NSR:Quay:101888,Tinghuset,59.91513,10.741255,NSR:Quay:101888,44
NSR:Quay:7194,Jernbanetorget,59.912095,10.751538,NSR:Quay:7194,45
NSR:Quay:7520,Prof. Aschehougs plass,59.914803,10.74056,NSR:Quay:7520,44
NSR:Quay:7574,Radisson Blu Scandinavia,59.918715,10.73382,NSR:Quay:7574,43
NSR:Quay:11970,Oslo bussterminal,59.911537,10.759329,NSR:Quay:11970,1
NSR:Quay:7573,Radisson Blu Scandinavia,59.918888,10.734019,NSR:Quay:7573,43
NSR:Quay:104062,Frydenlund,59.920884,10.733168,NSR:Quay:104062,564
NSR:Quay:104065,Dalsbergstien,59.923418,10.731736,NSR:Quay:104065,42
NSR:Quay:11487,Bislett,59.925739,10.732052,NSR:Quay:11487,41
NSR:Quay:11513,Sofies plass,59.924197,10.734892,NSR:Quay:11513,40
NSR:Quay:11528,St. Hanshaugen,59.924365,10.741904,NSR:Quay:11528,565
NSR:Quay:11557,Falck Ytters plass,59.925762,10.744833,NSR:Quay:11557,38
NSR:Quay:11548,Alexander Kiellands plass,59.927869,10.749253,NSR:Quay:11548,37
NSR:Quay:11853,Sannergata,59.92829,10.758963,NSR:Quay:11853,36
NSR:Quay:11861,Københavngata,59.929034,10.769456,NSR:Quay:11861,35
NSR:Quay:11049,Carl Berners plass,59.92639,10.77525,NSR:Quay:11049,14
NSR:Quay:102016,Fougners vei,59.924752,10.781659,NSR:Quay:102016,34
NSR:Quay:11083,Einars vei,59.924521,10.788695,NSR:Quay:11083,33
NSR:Quay:11129,Fyrstikktorget,59.913699,10.800537,NSR:Quay:11129,28
NSR:Quay:11144,Helsfyr T,59.913271,10.80257,NSR:Quay:11144,28
NSR:Quay:11205,Teisenkrysset,59.917049,10.810625,NSR:Quay:11205,32
NSR:Quay:11234,Ulvenkrysset,59.918624,10.816303,NSR:Quay:11234,31
NSR:Quay:10402,Trosterud,59.928746,10.864449,NSR:Quay:10402,30
NSR:Quay:12273,Radisson Blu Alna,59.930188,10.868225,NSR:Quay:12273,46
NSR:Quay:10284,Furuset skole,59.937546,10.892703,NSR:Quay:10284,29
NSR:Quay:8066,Majorstuen,59.92965,10.713266,NSR:Quay:8066,47
NSR:Quay:11598,Marienlyst,59.932389,10.724553,NSR:Quay:11598,48
NSR:Quay:11592,Vestre Aker kirke,59.935242,10.730628,NSR:Quay:11592,566
NSR:Quay:11578,Ullevål sykehus,59.935763,10.736687,NSR:Quay:11578,567
NSR:Quay:11608,Fayes gate,59.935231,10.741547,NSR:Quay:11608,49
NSR:Quay:11688,Sagene,59.93755,10.751396,NSR:Quay:11688,50
NSR:Quay:11712,Arendalsgata,59.937378,10.757812,NSR:Quay:11712,51
NSR:Quay:11733,Torshov,59.935039,10.76455,NSR:Quay:11733,52
NSR:Quay:11743,Torshovparken,59.933277,10.76878,NSR:Quay:11743,53
NSR:Quay:11082,Sinsen T,59.936203,10.7824,NSR:Quay:11082,54
NSR:Quay:11085,Sinsenkrysset,59.938119,10.786673,NSR:Quay:11085,55
NSR:Quay:11015,Bjerke,59.942697,10.811464,NSR:Quay:11015,56
NSR:Quay:12275,Smestad,59.938037,10.684907,NSR:Quay:12275,57
NSR:Quay:11455,Risalléen,59.945056,10.704742,NSR:Quay:11455,568
NSR:Quay:11485,Gaustad,59.945545,10.716029,NSR:Quay:11485,58
NSR:Quay:11299,Ullevål stadion,59.949775,10.732065,NSR:Quay:11299,569
NSR:Quay:11324,Berg,59.951924,10.744473,NSR:Quay:11324,59
NSR:Quay:11346,Tåsen senter,59.952766,10.751576,NSR:Quay:11346,60
NSR:Quay:11354,Bergrådveien,59.953199,10.757364,NSR:Quay:11354,61
NSR:Quay:11136,Nydalen stasjon,59.952716,10.76985,NSR:Quay:11136,62
NSR:Quay:11149,Lillo terrasse,59.951078,10.775536,NSR:Quay:11149,63
NSR:Quay:11128,Storo,59.945688,10.778886,NSR:Quay:11128,64
NSR:Quay:11108,Grefsen stasjon,59.940782,10.78137,NSR:Quay:11108,65
NSR:Quay:11088,Sinsenkrysset,59.936806,10.785989,NSR:Quay:11088,66
NSR:Quay:11067,Sinsenveien,59.934371,10.792606,NSR:Quay:11067,67
NSR:Quay:11071,Lørenvangen,59.931975,10.799987,NSR:Quay:11071,570
NSR:Quay:10834,Økern T,59.92824,10.806886,NSR:Quay:10834,24
NSR:Quay:10855,Ulven torg,59.925668,10.81177,NSR:Quay:10855,68
NSR:Quay:10930,Vollebekk,59.935775,10.83297,NSR:Quay:10930,69
NSR:Quay:10932,Veitvetveien,59.940427,10.856606,NSR:Quay:10932,571
NSR:Quay:10776,Nyland stasjon,59.944195,10.8704,NSR:Quay:10776,70
NSR:Quay:10800,Grorud stasjon,59.950021,10.885214,NSR:Quay:10800,572
NSR:Quay:10561,Smedstua,59.952918,10.913517,NSR:Quay:10561,71
NSR:Quay:11020,Bjerke,59.943018,10.810464,NSR:Quay:11020,56
NSR:Quay:11091,Sinsenkrysset,59.93816,10.785559,NSR:Quay:11091,55
NSR:Quay:11081,Sinsen T,59.936576,10.782014,NSR:Quay:11081,54
NSR:Quay:11744,Torshovparken,59.93339,10.769147,NSR:Quay:11744,53
NSR:Quay:11734,Torshov,59.935168,10.76445,NSR:Quay:11734,52
NSR:Quay:11713,Arendalsgata,59.937475,10.759424,NSR:Quay:11713,51
NSR:Quay:11689,Sagene,59.93763,10.750736,NSR:Quay:11689,50
NSR:Quay:11607,Fayes gate,59.935245,10.74317,NSR:Quay:11607,49
NSR:Quay:11579,Ullevål sykehus,59.936162,10.734769,NSR:Quay:11579,573
NSR:Quay:11595,Vestre Aker kirke,59.934305,10.727967,NSR:Quay:11595,574
NSR:Quay:11599,Marienlyst,59.932148,10.723608,NSR:Quay:11599,48
NSR:Quay:8067,Majorstuen,59.929541,10.714046,NSR:Quay:8067,47
NSR:Quay:10562,Smedstua,59.953196,10.913174,NSR:Quay:10562,71
NSR:Quay:10550,Haavard Martinsens vei,59.95464,10.898714,NSR:Quay:10550,575
NSR:Quay:10817,Vestbyveien,59.953389,10.887797,NSR:Quay:10817,72
NSR:Quay:10823,Grorud stasjon,59.951309,10.885482,NSR:Quay:10823,576
NSR:Quay:98643,Stanseveien,59.946862,10.877452,NSR:Quay:98643,577
NSR:Quay:10775,Nyland stasjon,59.944088,10.869577,NSR:Quay:10775,70
NSR:Quay:10933,Veitvetveien,59.940364,10.853111,NSR:Quay:10933,578
NSR:Quay:10926,Siemens,59.938003,10.837337,NSR:Quay:10926,579
NSR:Quay:10931,Vollebekk,59.936266,10.833249,NSR:Quay:10931,69
NSR:Quay:10856,Ulven torg,59.925512,10.811867,NSR:Quay:10856,68
NSR:Quay:11072,Lørenvangen,59.932984,10.797565,NSR:Quay:11072,580
NSR:Quay:11068,Sinsenveien,59.934647,10.79248,NSR:Quay:11068,67
NSR:Quay:11100,Sinsenkrysset,59.937186,10.786286,NSR:Quay:11100,66
NSR:Quay:11111,Grefsen stasjon,59.941338,10.781617,NSR:Quay:11111,65
NSR:Quay:11130,Storo,59.945849,10.779321,NSR:Quay:11130,64
NSR:Quay:11150,Lillo terrasse,59.951602,10.774734,NSR:Quay:11150,63
NSR:Quay:11138,Nydalen stasjon,59.953114,10.769351,NSR:Quay:11138,62
NSR:Quay:11353,Bergrådveien,59.953309,10.757064,NSR:Quay:11353,61
NSR:Quay:11343,Tåsen senter,59.952806,10.751184,NSR:Quay:11343,60
NSR:Quay:11322,Berg,59.951886,10.743148,NSR:Quay:11322,59
NSR:Quay:11311,Ullevål stadion,59.949438,10.729877,NSR:Quay:11311,581
NSR:Quay:11486,Gaustad,59.946275,10.712212,NSR:Quay:11486,73
NSR:Quay:11457,Risbakken,59.943752,10.700112,NSR:Quay:11457,74
NSR:Quay:11959,Smestad,59.937192,10.681635,NSR:Quay:11959,75
NSR:Quay:11993,Montebelloveien,59.930498,10.665356,NSR:Quay:11993,582
NSR:Quay:12016,Radiumhospitalet,59.928955,10.658938,NSR:Quay:12016,76
NSR:Quay:11685,Huseby skole,59.945273,10.655167,NSR:Quay:11685,77
NSR:Quay:11731,Røa T,59.946725,10.642603,NSR:Quay:11731,78
NSR:Quay:11742,Kristian Auberts vei,59.940795,10.641128,NSR:Quay:11742,79
NSR:Quay:12055,Møllefaret,59.937311,10.640345,NSR:Quay:12055,80
NSR:Quay:12052,Lysejordet,59.933422,10.639409,NSR:Quay:12052,81
NSR:Quay:12046,Lyseveien,59.930587,10.638556,NSR:Quay:12046,82
NSR:Quay:12041,Bjørnsletta,59.927564,10.638824,NSR:Quay:12041,83
NSR:Quay:12021,Blokkajordet,59.924967,10.647686,NSR:Quay:12021,84
NSR:Quay:12013,Radiumhospitalet,59.928838,10.659804,NSR:Quay:12013,76
NSR:Quay:11996,Montebelloveien,59.931737,10.668878,NSR:Quay:11996,583
NSR:Quay:12022,Blokkajordet,59.924959,10.647155,NSR:Quay:12022,84
NSR:Quay:12042,Bjørnsletta,59.927346,10.639272,NSR:Quay:12042,83
NSR:Quay:12048,Lyseveien,59.930454,10.638746,NSR:Quay:12048,82
NSR:Quay:12051,Lysejordet,59.934113,10.639915,NSR:Quay:12051,81
NSR:Quay:12056,Møllefaret,59.938,10.640849,NSR:Quay:12056,80
NSR:Quay:11741,Kristian Auberts vei,59.940666,10.641246,NSR:Quay:11741,79
NSR:Quay:11730,Røa T,59.947247,10.643115,NSR:Quay:11730,78
NSR:Quay:11684,Huseby skole,59.94487,10.656309,NSR:Quay:11684,77
NSR:Quay:11989,Oslo bussterminal,59.911829,10.758367,NSR:Quay:11989,1
NSR:Quay:7717,Filipstadveien,59.908488,10.712882,NSR:Quay:7717,2
NSR:Quay:12312,Fiskevollen,59.840763,10.779259,NSR:Quay:12312,85
NSR:Quay:12307,Gladvollveien,59.848211,10.778629,NSR:Quay:12307,86
NSR:Quay:12302,Katten,59.855214,10.784524,NSR:Quay:12302,87
NSR:Quay:12299,Vølund,59.860011,10.785798,NSR:Quay:12299,584
NSR:Quay:12296,Nordstrand bad,59.866085,10.783746,NSR:Quay:12296,585
NSR:Quay:12207,Ulvøybrua,59.873359,10.779323,NSR:Quay:12207,88
NSR:Quay:12204,Nedre Bekkelaget,59.880847,10.773522,NSR:Quay:12204,89
NSR:Quay:12197,Bekkelagsveien,59.884592,10.769134,NSR:Quay:12197,90
NSR:Quay:12148,Kongshavn,59.894428,10.758654,NSR:Quay:12148,91
NSR:Quay:11977,Oslo bussterminal,59.911809,10.758475,NSR:Quay:11977,1
NSR:Quay:12149,Kongshavn,59.894058,10.75844,NSR:Quay:12149,91
NSR:Quay:12198,Bekkelagsveien,59.883938,10.769372,NSR:Quay:12198,90
NSR:Quay:12202,Nedre Bekkelaget,59.881477,10.772296,NSR:Quay:12202,89
NSR:Quay:12206,Ulvøybrua,59.873207,10.779152,NSR:Quay:12206,88
NSR:Quay:12297,Nordstrand bad,59.86705,10.78307,NSR:Quay:12297,586
NSR:Quay:12298,Vølund,59.861479,10.784943,NSR:Quay:12298,587
NSR:Quay:12303,Katten,59.855455,10.784374,NSR:Quay:12303,87
NSR:Quay:12304,Ljansbakken,59.851454,10.781496,NSR:Quay:12304,588
NSR:Quay:12306,Gladvollveien,59.84819,10.778835,NSR:Quay:12306,86
NSR:Quay:12313,Fiskevollen,59.840626,10.778146,NSR:Quay:12313,85
NSR:Quay:7693,Tjuvholmen,59.909941,10.7221,NSR:Quay:7693,0
NSR:Quay:7791,Observatoriegata,59.912938,10.719789,NSR:Quay:7791,92
NSR:Quay:7747,Solli,59.915259,10.717343,NSR:Quay:7747,93
NSR:Quay:11474,Riddervolds plass,59.918324,10.718966,NSR:Quay:11474,94
NSR:Quay:8226,Uranienborgveien,59.9211,10.722552,NSR:Quay:8226,95
NSR:Quay:111170,Homansbyen,59.922892,10.725947,NSR:Quay:111170,96
NSR:Quay:11090,Carl Berners plass T,59.925922,10.777609,NSR:Quay:11090,14
NSR:Quay:11140,Helsfyr T,59.912481,10.801328,NSR:Quay:11140,28
NSR:Quay:101646,Kjelsåsalléen,59.963009,10.783969,NSR:Quay:101646,97
NSR:Quay:104007,Grefsen stadion,59.960314,10.784511,NSR:Quay:104007,98
NSR:Quay:104005,Grefsenplatået,59.955907,10.785669,NSR:Quay:104005,99
NSR:Quay:104009,Glads vei,59.952265,10.785262,NSR:Quay:104009,100
NSR:Quay:104011,Doktor Smiths vei,59.949529,10.790138,NSR:Quay:104011,101
NSR:Quay:104013,Disen,59.946322,10.787475,NSR:Quay:104013,102
NSR:Quay:104046,Storo,59.945282,10.778449,NSR:Quay:104046,64
NSR:Quay:104015,Grefsenveien,59.942512,10.773025,NSR:Quay:104015,103
NSR:Quay:11757,Sandaker senter,59.939298,10.768906,NSR:Quay:11757,104
NSR:Quay:7865,Huk,59.898559,10.674452,NSR:Quay:7865,105
NSR:Quay:7872,Ro,59.900862,10.675766,NSR:Quay:7872,106
NSR:Quay:7880,Frimurerhjemmet,59.901159,10.678904,NSR:Quay:7880,107
NSR:Quay:7891,Bygdøhus,59.901342,10.68223,NSR:Quay:7891,108
NSR:Quay:7904,Fredriksborg,59.903224,10.686878,NSR:Quay:7904,109
NSR:Quay:7913,Vikingskipene,59.90483,10.686787,NSR:Quay:7913,110
NSR:Quay:7922,Folkemuseet,59.907321,10.687415,NSR:Quay:7922,111
NSR:Quay:7856,Kongsgården,59.909243,10.681162,NSR:Quay:7856,112
NSR:Quay:7842,Karenslyst allé,59.918317,10.688734,NSR:Quay:7842,113
NSR:Quay:7836,Olav Kyrres plass,59.919187,10.697873,NSR:Quay:7836,114
NSR:Quay:7812,Frogner kirke,59.917466,10.707657,NSR:Quay:7812,115
NSR:Quay:104031,Solli,59.914873,10.719277,NSR:Quay:104031,93
NSR:Quay:7349,Nationaltheatret,59.914463,10.732905,NSR:Quay:7349,116
NSR:Quay:7311,Wessels plass,59.912175,10.738983,NSR:Quay:7311,117
NSR:Quay:7230,Kvadraturen,59.910564,10.743312,NSR:Quay:7230,589
NSR:Quay:7158,Jernbanetorget,59.909041,10.749527,NSR:Quay:7158,118
NSR:Quay:101465,Hausmanns bru,59.914722,10.760357,NSR:Quay:101465,119
NSR:Quay:101670,Herslebs gate,59.919413,10.762222,NSR:Quay:101670,120
NSR:Quay:101742,Sofienbergparken,59.923591,10.761315,NSR:Quay:101742,121
NSR:Quay:11839,Birkelunden,59.926576,10.761205,NSR:Quay:11839,122
NSR:Quay:11857,Dælenenga,59.928028,10.766545,NSR:Quay:11857,123
NSR:Quay:11748,Sæveruds plass,59.935152,10.774761,NSR:Quay:11748,124
NSR:Quay:11768,Haarklous plass,59.93781,10.774155,NSR:Quay:11768,125
NSR:Quay:11760,Nordpolen skole,59.940538,10.772352,NSR:Quay:11760,126
NSR:Quay:11777,Sandaker,59.942034,10.770383,NSR:Quay:11777,590
NSR:Quay:11786,Lillo gård,59.944905,10.772181,NSR:Quay:11786,591
NSR:Quay:11161,Nydalen T,59.948633,10.769834,NSR:Quay:11161,127
NSR:Quay:11164,Tamburveien,59.951098,10.768879,NSR:Quay:11164,128
NSR:Quay:11923,Lysaker bru,59.914488,10.640345,NSR:Quay:11923,592
NSR:Quay:11909,CC vest,59.918419,10.636745,NSR:Quay:11909,593
NSR:Quay:11905,Lilleaker,59.92057,10.636045,NSR:Quay:11905,129
NSR:Quay:11913,Vækerøveien,59.923549,10.643217,NSR:Quay:11913,130
NSR:Quay:11986,Husebyveien,59.934827,10.676109,NSR:Quay:11986,594
NSR:Quay:11958,Smestad,59.937365,10.682662,NSR:Quay:11958,75
NSR:Quay:11207,Valle Hovin,59.918749,10.808447,NSR:Quay:11207,595
NSR:Quay:11202,Teisenkrysset,59.916755,10.812148,NSR:Quay:11202,32
NSR:Quay:11194,Brynsengveien,59.91149,10.815678,NSR:Quay:11194,131
NSR:Quay:11184,Brynseng T,59.909288,10.814181,NSR:Quay:11184,132
NSR:Quay:10887,Høyenhall T,59.906962,10.819127,NSR:Quay:10887,133
NSR:Quay:10853,Manglerud T,59.898321,10.813639,NSR:Quay:10853,134
NSR:Quay:10822,Ryen T,59.895262,10.805231,NSR:Quay:10822,135
NSR:Quay:12280,Oluf Onsums vei,59.895618,10.801765,NSR:Quay:12280,136
NSR:Quay:12277,Benveien,59.897536,10.79716,NSR:Quay:12277,137
NSR:Quay:12271,Lyngveien,59.897616,10.793134,NSR:Quay:12271,138
NSR:Quay:12263,Simensbråten,59.89583,10.78733,NSR:Quay:12263,139
NSR:Quay:109021,Majorstuen,59.92858,10.717482,NSR:Quay:109021,140
NSR:Quay:11618,John Colletts plass,59.940972,10.729831,NSR:Quay:11618,141
NSR:Quay:11314,Ullevål stadion T,59.947263,10.732862,NSR:Quay:11314,142
NSR:Quay:11384,Nordberghjemmet,59.961427,10.744331,NSR:Quay:11384,143
NSR:Quay:105184,Kongleveien,59.961826,10.734439,NSR:Quay:105184,596
NSR:Quay:11404,Kringsjå,59.964134,10.734327,NSR:Quay:11404,144
NSR:Quay:101619,Sognsvann T,59.967443,10.733213,NSR:Quay:101619,145
NSR:Quay:11148,Helsfyr T,59.912619,10.800422,NSR:Quay:11148,28
NSR:Quay:11089,Carl Berners plass T,59.926031,10.777328,NSR:Quay:11089,14
NSR:Quay:111169,Homansbyen,59.922837,10.725628,NSR:Quay:111169,96
NSR:Quay:8225,Uranienborgveien,59.921079,10.722348,NSR:Quay:8225,95
NSR:Quay:11475,Riddervolds plass,59.918301,10.718713,NSR:Quay:11475,94
NSR:Quay:7739,Solli,59.915234,10.717219,NSR:Quay:7739,93
NSR:Quay:7790,Observatoriegata,59.912723,10.719314,NSR:Quay:7790,92
NSR:Quay:7692,Tjuvholmen,59.910114,10.721237,NSR:Quay:7692,0
NSR:Quay:10794,Skullerud,59.866984,10.84,NSR:Quay:10794,146
NSR:Quay:10804,Langerudhjemmet,59.869165,10.83646,NSR:Quay:10804,147
NSR:Quay:10944,Langerudveien,59.873715,10.829816,NSR:Quay:10944,148
NSR:Quay:10940,Lille Langerud,59.87656,10.828346,NSR:Quay:10940,149
NSR:Quay:10920,Abildsø,59.880323,10.825763,NSR:Quay:10920,150
NSR:Quay:10924,Smedberg,59.884904,10.8177,NSR:Quay:10924,597
NSR:Quay:10927,Alléen,59.888539,10.813854,NSR:Quay:10927,151
NSR:Quay:10848,Sandstuveien,59.891278,10.809748,NSR:Quay:10848,152
NSR:Quay:10841,Ryensvingen,59.894483,10.805912,NSR:Quay:10841,135
NSR:Quay:10831,Ryen T,59.895974,10.802726,NSR:Quay:10831,136
NSR:Quay:10836,Ryenberget,59.897529,10.802685,NSR:Quay:10836,153
NSR:Quay:10868,Manglerudveien,59.899977,10.803393,NSR:Quay:10868,154
NSR:Quay:10873,Furuveien,59.903872,10.80308,NSR:Quay:10873,598
NSR:Quay:12116,Eirik Raudes vei,59.902506,10.7969,NSR:Quay:12116,599
NSR:Quay:12105,Kværner,59.901995,10.787635,NSR:Quay:12105,155
NSR:Quay:12109,Lodalen,59.903443,10.777709,NSR:Quay:12109,156
NSR:Quay:104409,Middelalderparken,59.90642,10.764182,NSR:Quay:104409,157
NSR:Quay:7170,Bjørvika,59.908211,10.756903,NSR:Quay:7170,158
NSR:Quay:7159,Jernbanetorget,59.909486,10.748067,NSR:Quay:7159,118
NSR:Quay:101778,Kvadraturen,59.910232,10.74512,NSR:Quay:101778,600
NSR:Quay:101777,Wessels plass,59.91229,10.739278,NSR:Quay:101777,117
NSR:Quay:7350,Nationaltheatret,59.914791,10.732886,NSR:Quay:7350,116
NSR:Quay:12430,Holmlia stasjon,59.834891,10.797031,NSR:Quay:12430,159
NSR:Quay:12428,Lerdalstoppen,59.83688,10.801567,NSR:Quay:12428,160
NSR:Quay:12425,Asperudtoppen,59.83874,10.800325,NSR:Quay:12425,161
NSR:Quay:12424,Asperudåsen,59.83994,10.799233,NSR:Quay:12424,601
NSR:Quay:12426,Asperudtoppen,59.838653,10.800773,NSR:Quay:12426,161
NSR:Quay:12427,Lerdalstoppen,59.836709,10.800971,NSR:Quay:12427,160
NSR:Quay:106932,Holmlia stasjon,59.834438,10.797525,NSR:Quay:106932,159
NSR:Quay:10417,Liakollen,59.829376,10.799137,NSR:Quay:10417,162
NSR:Quay:12447,Krummedike,59.827769,10.799121,NSR:Quay:12447,602
NSR:Quay:10585,Stovner bru,59.946792,10.93944,NSR:Quay:10585,163
NSR:Quay:10590,Fjellstuveien,59.949966,10.938402,NSR:Quay:10590,164
NSR:Quay:10593,Tjonerudveien,59.952307,10.938338,NSR:Quay:10593,603
NSR:Quay:10596,Stovnerbakken,59.954685,10.935763,NSR:Quay:10596,165
NSR:Quay:10507,Johnny Svorkmos vei,59.957551,10.934095,NSR:Quay:10507,166
NSR:Quay:10504,Olaus Fjørtofts vei,59.959286,10.931085,NSR:Quay:10504,167
NSR:Quay:10500,Øvre Fossum,59.958969,10.926485,NSR:Quay:10500,168
NSR:Quay:10494,Stovner T,59.961552,10.922803,NSR:Quay:10494,169
NSR:Quay:10727,Grorud T,59.960799,10.88288,NSR:Quay:10727,170
NSR:Quay:10687,Grorud skole,59.958175,10.882739,NSR:Quay:10687,171
NSR:Quay:10684,Sagstuveien,59.954031,10.880534,NSR:Quay:10684,172
NSR:Quay:110987,Bekkenstenveien,59.952335,10.886046,NSR:Quay:110987,604
NSR:Quay:110999,Grorud stasjon,59.949605,10.890613,NSR:Quay:110999,173
NSR:Quay:10320,Vestre Haugen,59.947829,10.896935,NSR:Quay:10320,605
NSR:Quay:10317,Gransletta,59.944702,10.899685,NSR:Quay:10317,174
NSR:Quay:10313,Nordre Gran,59.941813,10.902745,NSR:Quay:10313,175
NSR:Quay:109485,Furuset T,59.940459,10.898129,NSR:Quay:109485,176
NSR:Quay:10292,Furuset skole,59.937325,10.892614,NSR:Quay:10292,29
NSR:Quay:10281,Jeriko skole,59.935204,10.886668,NSR:Quay:10281,606
NSR:Quay:10274,Lindeberg T,59.932845,10.88081,NSR:Quay:10274,177
NSR:Quay:10277,Lindeberghjemmet,59.930737,10.875864,NSR:Quay:10277,178
NSR:Quay:10372,Skjønhaug,59.929743,10.8697,NSR:Quay:10372,46
NSR:Quay:10376,Trosterudkrysset,59.928076,10.865275,NSR:Quay:10376,30
NSR:Quay:11378,Doktor Dedichens vei,59.924466,10.858084,NSR:Quay:11378,607
NSR:Quay:11348,Haugerud T,59.921848,10.854728,NSR:Quay:11348,179
NSR:Quay:11352,Haugerudveien,59.918577,10.851333,NSR:Quay:11352,180
NSR:Quay:11325,Tveita bedriftsområde,59.915279,10.847352,NSR:Quay:11325,608
NSR:Quay:11323,Tveita,59.912924,10.844257,NSR:Quay:11323,609
NSR:Quay:11416,Trasoppveien,59.910587,10.847768,NSR:Quay:11416,181
NSR:Quay:11407,Trasop skole,59.904525,10.851054,NSR:Quay:11407,182
NSR:Quay:11014,Solbergliveien,59.901034,10.851196,NSR:Quay:11014,610
NSR:Quay:11016,Kampheimveien,59.897772,10.852368,NSR:Quay:11016,183
NSR:Quay:11021,Eftasåsen,59.896177,10.854071,NSR:Quay:11021,184
NSR:Quay:10741,Østmarkveien,59.8919,10.854991,NSR:Quay:10741,185
NSR:Quay:10744,Olav Nygards veg,59.8883,10.85181,NSR:Quay:10744,186
NSR:Quay:10754,Bøler T,59.883397,10.843058,NSR:Quay:10754,187
NSR:Quay:10766,Martin Linges vei,59.880401,10.839759,NSR:Quay:10766,188
NSR:Quay:10774,Bogerud T,59.875077,10.841985,NSR:Quay:10774,189
NSR:Quay:10777,Welding Olsens vei,59.870428,10.84717,NSR:Quay:10777,190
NSR:Quay:10782,Skullerudveien,59.867337,10.844037,NSR:Quay:10782,191
NSR:Quay:10790,Skullerud,59.867307,10.840091,NSR:Quay:10790,146
NSR:Quay:10917,Abildsø,59.879736,10.82495,NSR:Quay:10917,150
NSR:Quay:10646,Gina Krogs vei,59.875376,10.816118,NSR:Quay:10646,192
NSR:Quay:10641,Lambertseter senter,59.873335,10.812263,NSR:Quay:10641,193
NSR:Quay:10670,Munkelia T,59.868413,10.813229,NSR:Quay:10670,194
NSR:Quay:10677,Langbølgen,59.865573,10.814385,NSR:Quay:10677,195
NSR:Quay:12357,P. A. Holms vei,59.861098,10.815155,NSR:Quay:12357,196
NSR:Quay:12353,Munkerud,59.860388,10.81114,NSR:Quay:12353,197
NSR:Quay:12351,Sæter,59.860878,10.801472,NSR:Quay:12351,198
NSR:Quay:12377,Nordstrand kirke,59.857917,10.801489,NSR:Quay:12377,199
NSR:Quay:12371,Ljabru,59.853308,10.80113,NSR:Quay:12371,611
NSR:Quay:12375,Knud Øyens vei,59.851278,10.799331,NSR:Quay:12375,200
NSR:Quay:12419,Ljabru hovedgård,59.849269,10.803305,NSR:Quay:12419,201
NSR:Quay:12410,Hauketo stasjon,59.846174,10.80323,NSR:Quay:12410,202
NSR:Quay:12444,Hallagerbakken,59.841301,10.793703,NSR:Quay:12444,612
NSR:Quay:12443,Skovbakken nord,59.840414,10.795079,NSR:Quay:12443,613
NSR:Quay:12429,Holmlia stasjon,59.835034,10.796696,NSR:Quay:12429,159
NSR:Quay:12451,Rosenholmveien,59.829975,10.792691,NSR:Quay:12451,203
NSR:Quay:12453,Åstun,59.830706,10.789234,NSR:Quay:12453,204
NSR:Quay:12457,Vestskrenten,59.829978,10.781879,NSR:Quay:12457,205
NSR:Quay:12458,Grensestien,59.827627,10.779342,NSR:Quay:12458,206
NSR:Quay:12461,Åsbråten,59.82648,10.782644,NSR:Quay:12461,207
NSR:Quay:11313,Tveita T,59.913819,10.842269,NSR:Quay:11313,208
NSR:Quay:11316,Tveita,59.914334,10.845864,NSR:Quay:11316,614
NSR:Quay:11326,Tveita bedriftsområde,59.916522,10.849262,NSR:Quay:11326,615
NSR:Quay:11351,Haugerudveien,59.918616,10.851536,NSR:Quay:11351,180
NSR:Quay:11347,Haugerud T,59.92204,10.855227,NSR:Quay:11347,179
NSR:Quay:11379,Doktor Dedichens vei,59.924582,10.860173,NSR:Quay:11379,616
NSR:Quay:11382,Haukåsen skole,59.922353,10.863445,NSR:Quay:11382,209
NSR:Quay:11387,Fagerholt,59.92356,10.867758,NSR:Quay:11387,210
NSR:Quay:11393,Lutvann skole,59.925707,10.869668,NSR:Quay:11393,211
NSR:Quay:11397,Lutvannsveien,59.925317,10.872777,NSR:Quay:11397,212
NSR:Quay:12209,Skar,60.026663,10.779284,NSR:Quay:12209,213
NSR:Quay:12212,Skarsbakken,60.020222,10.777819,NSR:Quay:12212,617
NSR:Quay:12217,Rugda,60.014805,10.772618,NSR:Quay:12217,618
NSR:Quay:12218,Turtermarka,60.009325,10.766202,NSR:Quay:12218,619
NSR:Quay:12223,Maridalen skole,60.004362,10.763058,NSR:Quay:12223,620
NSR:Quay:12182,Hammeren,59.994042,10.752305,NSR:Quay:12182,214
NSR:Quay:12179,Saga,59.988535,10.752923,NSR:Quay:12179,215
NSR:Quay:12174,Skjerven,59.986027,10.752694,NSR:Quay:12174,216
NSR:Quay:12169,Låkeberget,59.979914,10.757316,NSR:Quay:12169,217
NSR:Quay:12162,Brennenga,59.97711,10.761181,NSR:Quay:12162,218
NSR:Quay:12161,Engelsrud,59.972978,10.764222,NSR:Quay:12161,219
NSR:Quay:11431,Brekkekrysset,59.966939,10.766425,NSR:Quay:11431,220
NSR:Quay:11427,Brekkehagan,59.964942,10.766486,NSR:Quay:11427,221
NSR:Quay:11425,Korsvoll,59.962833,10.765821,NSR:Quay:11425,222
NSR:Quay:11413,Skibakken,59.959462,10.764094,NSR:Quay:11413,223
NSR:Quay:11356,Øvre Stabburvei,59.954206,10.760725,NSR:Quay:11356,224
NSR:Quay:11363,Blåsbortveien,59.950792,10.760832,NSR:Quay:11363,225
NSR:Quay:11368,Godals vei,59.947355,10.760049,NSR:Quay:11368,226
NSR:Quay:11724,Kristoffer Aamots bro,59.946765,10.76422,NSR:Quay:11724,227
NSR:Quay:11796,Fernanda Nissen skole,59.946851,10.769603,NSR:Quay:11796,228
NSR:Quay:12295,Brattlikollen T,59.886435,10.800483,NSR:Quay:12295,229
NSR:Quay:10627,Karlsrud T,59.879654,10.805754,NSR:Quay:10627,230
NSR:Quay:10690,Blåfjellet,59.86867,10.814817,NSR:Quay:10690,194
NSR:Quay:10685,Bergkrystallen T,59.866676,10.82193,NSR:Quay:10685,621
NSR:Quay:12462,Åsbråten,59.825833,10.781968,NSR:Quay:12462,207
NSR:Quay:12459,Grensestien,59.827506,10.779803,NSR:Quay:12459,206
NSR:Quay:12456,Vestskrenten,59.829141,10.781263,NSR:Quay:12456,205
NSR:Quay:12454,Åstun,59.830796,10.787764,NSR:Quay:12454,204
NSR:Quay:12452,Rosenholmveien,59.83002,10.793113,NSR:Quay:12452,203
NSR:Quay:12432,Holmlia stasjon,59.835056,10.796361,NSR:Quay:12432,159
NSR:Quay:12403,Hauketo stasjon,59.846539,10.803482,NSR:Quay:12403,202
NSR:Quay:12420,Ljabru hovedgård,59.849247,10.804071,NSR:Quay:12420,201
NSR:Quay:12374,Knud Øyens vei,59.851366,10.799043,NSR:Quay:12374,200
NSR:Quay:12370,Ljabru,59.85441,10.802372,NSR:Quay:12370,622
NSR:Quay:12376,Nordstrand kirke,59.858067,10.801693,NSR:Quay:12376,199
NSR:Quay:12350,Sæter,59.860757,10.802069,NSR:Quay:12350,198
NSR:Quay:12355,Munkerud,59.860305,10.811343,NSR:Quay:12355,197
NSR:Quay:12356,P. A. Holms vei,59.861161,10.815399,NSR:Quay:12356,196
NSR:Quay:10678,Langbølgen,59.865782,10.81446,NSR:Quay:10678,195
NSR:Quay:10671,Munkelia T,59.868041,10.813503,NSR:Quay:10671,194
NSR:Quay:10642,Lambertseter senter,59.873502,10.81239,NSR:Quay:10642,193
NSR:Quay:10647,Gina Krogs vei,59.875267,10.816083,NSR:Quay:10647,192
NSR:Quay:10919,Abildsø,59.879484,10.826326,NSR:Quay:10919,150
NSR:Quay:10941,Lille Langerud,59.875815,10.828236,NSR:Quay:10941,149
NSR:Quay:10945,Langerudveien,59.873824,10.829494,NSR:Quay:10945,148
NSR:Quay:10803,Langerudhjemmet,59.869568,10.835234,NSR:Quay:10803,147
NSR:Quay:10795,Skullerud,59.866005,10.839359,NSR:Quay:10795,146
NSR:Quay:10783,Skullerudveien,59.867439,10.844281,NSR:Quay:10783,191
NSR:Quay:10778,Welding Olsens vei,59.870568,10.847459,NSR:Quay:10778,190
NSR:Quay:10773,Bogerud T,59.875283,10.841956,NSR:Quay:10773,189
NSR:Quay:10765,Martin Linges vei,59.880336,10.839941,NSR:Quay:10765,188
NSR:Quay:10755,Bøler T,59.883655,10.844622,NSR:Quay:10755,187
NSR:Quay:10745,Olav Nygards veg,59.88898,10.8527,NSR:Quay:10745,186
NSR:Quay:10742,Østmarkveien,59.891604,10.854959,NSR:Quay:10742,185
NSR:Quay:11022,Eftasåsen,59.896262,10.854294,NSR:Quay:11022,184
NSR:Quay:11017,Kampheimveien,59.897852,10.852561,NSR:Quay:11017,183
NSR:Quay:11013,Solbergliveien,59.899828,10.851786,NSR:Quay:11013,623
NSR:Quay:11406,Trasop skole,59.903772,10.851335,NSR:Quay:11406,182
NSR:Quay:11412,Hellerudfaret,59.905546,10.851279,NSR:Quay:11412,624
NSR:Quay:11415,Trasoppveien,59.910329,10.849098,NSR:Quay:11415,181
NSR:Quay:11331,Stordamveien,59.911531,10.846408,NSR:Quay:11331,181
NSR:Quay:11380,Doktor Dedichens vei,59.92568,10.860782,NSR:Quay:11380,625
NSR:Quay:10375,Trosterudkrysset,59.928024,10.865473,NSR:Quay:10375,30
NSR:Quay:10370,Skjønhaug,59.929758,10.870333,NSR:Quay:10370,46
NSR:Quay:10278,Lindeberghjemmet,59.93093,10.875958,NSR:Quay:10278,178
NSR:Quay:10272,Lindeberg T,59.932917,10.881073,NSR:Quay:10272,177
NSR:Quay:10282,Jeriko skole,59.934751,10.884651,NSR:Quay:10282,626
NSR:Quay:10295,Furuset skole,59.937034,10.892306,NSR:Quay:10295,29
NSR:Quay:109484,Furuset T,59.940395,10.898759,NSR:Quay:109484,176
NSR:Quay:10312,Nordre Gran,59.941915,10.902734,NSR:Quay:10312,175
NSR:Quay:10316,Gransletta,59.944945,10.899709,NSR:Quay:10316,174
NSR:Quay:10319,Vestre Haugen,59.94907,10.895897,NSR:Quay:10319,627
NSR:Quay:111000,Grorud stasjon,59.949607,10.889334,NSR:Quay:111000,173
NSR:Quay:10805,Bekkenstenveien,59.953293,10.886134,NSR:Quay:10805,72
NSR:Quay:10683,Sagstuveien,59.954266,10.880595,NSR:Quay:10683,172
NSR:Quay:10686,Grorud skole,59.958359,10.882851,NSR:Quay:10686,171
NSR:Quay:11238,Kjelsås stasjon,59.965745,10.781925,NSR:Quay:11238,231
NSR:Quay:11283,Stillatorvet,59.966418,10.775788,NSR:Quay:11283,628
NSR:Quay:11286,Brekke,59.969226,10.774463,NSR:Quay:11286,629
NSR:Quay:11718,Badebakken,59.94577,10.760119,NSR:Quay:11718,232
NSR:Quay:11703,Bjølsen,59.942828,10.759628,NSR:Quay:11703,233
NSR:Quay:11708,Advokat Dehlis plass,59.939481,10.758877,NSR:Quay:11708,234
NSR:Quay:11674,Arkitekt Rivertz plass,59.933792,10.749414,NSR:Quay:11674,235
NSR:Quay:11565,Evald Ryghs gate,59.930467,10.748794,NSR:Quay:11565,236
NSR:Quay:11549,Alexander Kiellands plass,59.928635,10.74939,NSR:Quay:11549,37
NSR:Quay:11554,Telthusbakken,59.924566,10.750396,NSR:Quay:11554,237
NSR:Quay:11836,Møllerveien,59.920556,10.751262,NSR:Quay:11836,238
NSR:Quay:11828,Jakob kirke,59.917326,10.754685,NSR:Quay:11828,630
NSR:Quay:105305,Storgata,59.913819,10.750908,NSR:Quay:105305,239
NSR:Quay:7203,Jernbanetorget,59.911425,10.749736,NSR:Quay:7203,45
NSR:Quay:7169,Bjørvika,59.90795,10.756871,NSR:Quay:7169,158
NSR:Quay:104410,Middelalderparken,59.906112,10.764716,NSR:Quay:104410,157
NSR:Quay:12093,St. Halvards gate,59.906213,10.775386,NSR:Quay:12093,240
NSR:Quay:105466,Kværnerbyen,59.904739,10.785339,NSR:Quay:105466,241
NSR:Quay:12069,Galgeberg,59.908311,10.779924,NSR:Quay:12069,242
NSR:Quay:12089,Kjølberggata,59.911172,10.777499,NSR:Quay:12089,631
NSR:Quay:11906,Tøyen,59.914585,10.777035,NSR:Quay:11906,243
NSR:Quay:11924,Tøyenparken,59.917301,10.775807,NSR:Quay:11924,244
NSR:Quay:11891,Helgesens gate,59.922006,10.775413,NSR:Quay:11891,245
NSR:Quay:8089,Majorstuen,59.929712,10.717431,NSR:Quay:8089,47
NSR:Quay:8209,Frogner stadion,59.927242,10.712657,NSR:Quay:8209,246
NSR:Quay:8182,Vigelandsparken,59.924451,10.707727,NSR:Quay:8182,247
NSR:Quay:8159,Frogner plass,59.921768,10.70472,NSR:Quay:8159,248
NSR:Quay:7820,Odins gate,59.919464,10.703526,NSR:Quay:7820,249
NSR:Quay:7835,Olav Kyrres plass,59.919297,10.697795,NSR:Quay:7835,114
NSR:Quay:11844,Thune,59.921866,10.687742,NSR:Quay:11844,250
NSR:Quay:11817,Skøyen stasjon,59.922145,10.67873,NSR:Quay:11817,251
NSR:Quay:8115,Majorstuen,59.930426,10.712581,NSR:Quay:8115,47
NSR:Quay:11927,Volvat,59.932671,10.704669,NSR:Quay:11927,252
NSR:Quay:11937,Borgen,59.934749,10.69665,NSR:Quay:11937,253
NSR:Quay:11940,Heggeli,59.935965,10.690231,NSR:Quay:11940,632
NSR:Quay:11955,Smestad,59.937286,10.685068,NSR:Quay:11955,57
NSR:Quay:11653,Bernhard Herres vei,59.941811,10.681804,NSR:Quay:11653,254
NSR:Quay:11657,Holmendammen,59.94427,10.680516,NSR:Quay:11657,255
NSR:Quay:11661,Holmenenga,59.94893,10.676321,NSR:Quay:11661,256
NSR:Quay:11665,Gressbanen,59.950964,10.675106,NSR:Quay:11665,257
NSR:Quay:11672,Arnebråtveien,59.950979,10.665362,NSR:Quay:11672,258
NSR:Quay:11677,Amagerveien,59.952567,10.66074,NSR:Quay:11677,259
NSR:Quay:11776,Jarbakken,59.955032,10.657047,NSR:Quay:11776,260
NSR:Quay:11780,Nordre Jarbakken,59.956607,10.654432,NSR:Quay:11780,261
NSR:Quay:11783,Sagstua,59.96031,10.649861,NSR:Quay:11783,262
NSR:Quay:11787,Himstadplassen,59.962687,10.646551,NSR:Quay:11787,633
NSR:Quay:11813,Liabakken,59.965979,10.644899,NSR:Quay:11813,263
NSR:Quay:11809,Åsly,59.968655,10.644398,NSR:Quay:11809,264
NSR:Quay:11803,Grindbakken,59.970889,10.64436,NSR:Quay:11803,265
NSR:Quay:11799,Voksen skog,59.97497,10.644727,NSR:Quay:11799,266
NSR:Quay:11980,Oslo bussterminal,59.911465,10.760298,NSR:Quay:11980,1
NSR:Quay:11142,Helsfyr T,59.912842,10.801242,NSR:Quay:11142,28
NSR:Quay:10383,Kjelsrud,59.931395,10.862021,NSR:Quay:10383,634
NSR:Quay:10664,Kalbakkveien,59.951637,10.864872,NSR:Quay:10664,15
NSR:Quay:10956,Linderudsletta,59.944508,10.835797,NSR:Quay:10956,9
NSR:Quay:10969,Kolåsbakken,59.944446,10.832203,NSR:Quay:10969,267
NSR:Quay:11023,Tonsenhagen,59.946079,10.828512,NSR:Quay:11023,268
NSR:Quay:11028,Tonsenhagen torg,59.947314,10.821458,NSR:Quay:11028,269
NSR:Quay:11035,Stig,59.947278,10.817518,NSR:Quay:11035,270
NSR:Quay:11012,Årvollveien,59.946236,10.811987,NSR:Quay:11012,271
NSR:Quay:11055,Årrundveien,59.945673,10.804716,NSR:Quay:11055,272
NSR:Quay:11052,Lofthus,59.947391,10.802803,NSR:Quay:11052,273
NSR:Quay:11206,Grefsenkollveien,59.9514,10.795942,NSR:Quay:11206,635
NSR:Quay:109642,Brannvaktveien,59.953221,10.792458,NSR:Quay:109642,274
NSR:Quay:104006,Grefsenplatået,59.956015,10.785809,NSR:Quay:104006,99
NSR:Quay:104008,Grefsen stadion,59.9599,10.784929,NSR:Quay:104008,98
NSR:Quay:11252,Kjelsåsalléen,59.963115,10.783255,NSR:Quay:11252,97
NSR:Quay:11434,Svensenga,59.963208,10.769603,NSR:Quay:11434,636
NSR:Quay:11418,Korsvollbakken,59.958115,10.762404,NSR:Quay:11418,275
NSR:Quay:11381,Havnabakken,59.959165,10.754859,NSR:Quay:11381,276
NSR:Quay:11394,Kongleveien,59.960876,10.73442,NSR:Quay:11394,637
NSR:Quay:11398,Nordbergveien,59.957709,10.732704,NSR:Quay:11398,277
NSR:Quay:11307,Solvang,59.953753,10.728018,NSR:Quay:11307,278
NSR:Quay:11300,Blindern vgs.,59.951087,10.728752,NSR:Quay:11300,279
NSR:Quay:11671,Domus Athletica,59.947419,10.721911,NSR:Quay:11671,638
NSR:Quay:11315,Ullevål stadion T,59.94718,10.732701,NSR:Quay:11315,142
NSR:Quay:11667,Eventyrveien,59.944578,10.731521,NSR:Quay:11667,280
NSR:Quay:11614,John Colletts plass,59.940862,10.729582,NSR:Quay:11614,141
NSR:Quay:11630,Ullevålsalléen,59.937738,10.73014,NSR:Quay:11630,281
NSR:Quay:11581,Ullevål sykehus,59.936177,10.731867,NSR:Quay:11581,282
NSR:Quay:8078,Majorstuen,59.929783,10.715688,NSR:Quay:8078,47
NSR:Quay:12266,Simensbråten,59.895793,10.787547,NSR:Quay:12266,139
NSR:Quay:12272,Lyngveien,59.897206,10.792099,NSR:Quay:12272,138
NSR:Quay:12276,Benveien,59.897488,10.797037,NSR:Quay:12276,137
NSR:Quay:12279,Oluf Onsums vei,59.895559,10.802154,NSR:Quay:12279,136
NSR:Quay:10821,Ryen T,59.895274,10.806231,NSR:Quay:10821,135
NSR:Quay:10854,Manglerud T,59.897926,10.813621,NSR:Quay:10854,134
NSR:Quay:10890,Bryn senter,59.905094,10.821729,NSR:Quay:10890,639
NSR:Quay:10886,Høyenhall T,59.906861,10.81954,NSR:Quay:10886,133
NSR:Quay:11185,Brynseng T,59.91,10.813484,NSR:Quay:11185,132
NSR:Quay:11191,Brynsengveien,59.912083,10.815954,NSR:Quay:11191,131
NSR:Quay:11210,Teisenkrysset,59.917832,10.81044,NSR:Quay:11210,32
NSR:Quay:11914,Vækerøveien,59.923708,10.643306,NSR:Quay:11914,130
NSR:Quay:11907,Lilleaker,59.9214,10.636281,NSR:Quay:11907,129
NSR:Quay:11911,CC vest,59.917441,10.636858,NSR:Quay:11911,640
NSR:Quay:105467,Kværnerbyen,59.904345,10.786321,NSR:Quay:105467,241
NSR:Quay:12094,St. Halvards gate,59.906331,10.774739,NSR:Quay:12094,240
NSR:Quay:7202,Jernbanetorget,59.911701,10.750412,NSR:Quay:7202,45
NSR:Quay:105306,Storgata,59.914039,10.751884,NSR:Quay:105306,239
NSR:Quay:11830,Jakob kirke,59.918179,10.753692,NSR:Quay:11830,641
NSR:Quay:11835,Møllerveien,59.920947,10.751485,NSR:Quay:11835,238
NSR:Quay:11555,Telthusbakken,59.924563,10.750618,NSR:Quay:11555,237
NSR:Quay:11550,Alexander Kiellands plass,59.928867,10.749631,NSR:Quay:11550,37
NSR:Quay:11563,Evald Ryghs gate,59.931006,10.749057,NSR:Quay:11563,236
NSR:Quay:11675,Arkitekt Rivertz plass,59.93484,10.749905,NSR:Quay:11675,235
NSR:Quay:11709,Advokat Dehlis plass,59.938743,10.759588,NSR:Quay:11709,234
NSR:Quay:11704,Bjølsen,59.942325,10.759657,NSR:Quay:11704,233
NSR:Quay:11717,Badebakken,59.945641,10.760306,NSR:Quay:11717,232
NSR:Quay:11367,Godals vei,59.94788,10.759995,NSR:Quay:11367,226
NSR:Quay:11362,Blåsbortveien,59.95086,10.761049,NSR:Quay:11362,225
NSR:Quay:11355,Øvre Stabburvei,59.953925,10.760921,NSR:Quay:11355,224
NSR:Quay:11414,Skibakken,59.959099,10.764233,NSR:Quay:11414,223
NSR:Quay:11424,Korsvoll,59.962028,10.765464,NSR:Quay:11424,222
NSR:Quay:11432,Brekkekrysset,59.967196,10.766599,NSR:Quay:11432,220
NSR:Quay:11278,Frysja,59.966757,10.773937,NSR:Quay:11278,642
NSR:Quay:11284,Stillatorvet,59.965803,10.777663,NSR:Quay:11284,643
NSR:Quay:11239,Kjelsås stasjon,59.965592,10.782625,NSR:Quay:11239,231
NSR:Quay:11146,Helsfyr T,59.913021,10.801991,NSR:Quay:11146,28
NSR:Quay:102011,Prost Hallings vei,59.916555,10.819669,NSR:Quay:102011,644
NSR:Quay:102013,Bryn skole,59.913831,10.822893,NSR:Quay:102013,283
NSR:Quay:11276,Hellerud,59.910418,10.831468,NSR:Quay:11276,284
NSR:Quay:11281,Tveten gård,59.911627,10.837978,NSR:Quay:11281,285
NSR:Quay:10797,Skullerud,59.867148,10.840046,NSR:Quay:10797,146
NSR:Quay:10811,Skullerudbakken,59.863958,10.837192,NSR:Quay:10811,286
NSR:Quay:10813,Skullerudkrysset,59.863666,10.83197,NSR:Quay:10813,287
NSR:Quay:10476,Mortensrudkrysset,59.850309,10.832836,NSR:Quay:10476,645
NSR:Quay:10432,Mortensrud T,59.849154,10.829644,NSR:Quay:10432,288
NSR:Quay:106971,Bryn brannstasjon,59.912646,10.813031,NSR:Quay:106971,289
NSR:Quay:11219,Klosterheim,59.91285,10.821828,NSR:Quay:11219,290
NSR:Quay:11226,Bryn skole,59.913906,10.824733,NSR:Quay:11226,283
NSR:Quay:11253,Fretex,59.91691,10.827177,NSR:Quay:11253,291
NSR:Quay:11246,Caspar Storms vei,59.919797,10.830001,NSR:Quay:11246,292
NSR:Quay:11243,Ole Deviks vei,59.923258,10.832678,NSR:Quay:11243,646
NSR:Quay:11458,Smalvollveien,59.924563,10.842795,NSR:Quay:11458,293
NSR:Quay:10387,Kjelsrud,59.931677,10.859119,NSR:Quay:10387,647
NSR:Quay:10351,IKEA Furuset,59.934622,10.870926,NSR:Quay:10351,294
NSR:Quay:10361,Alnaparkveien,59.940411,10.881569,NSR:Quay:10361,648
NSR:Quay:10366,Prof. Birkelands vei,59.943721,10.885305,NSR:Quay:10366,295
NSR:Quay:111001,Grorud stasjon,59.949012,10.88909,NSR:Quay:111001,173
NSR:Quay:10728,Grorud T,59.960993,10.882868,NSR:Quay:10728,170
NSR:Quay:109117,Holbergs plass,59.917743,10.735308,NSR:Quay:109117,296
NSR:Quay:7384,Nationaltheatret,59.915964,10.733618,NSR:Quay:7384,649
NSR:Quay:10403,Trosterud,59.929457,10.864204,NSR:Quay:10403,30
NSR:Quay:10345,Karihaugen,59.937621,10.926872,NSR:Quay:10345,297
NSR:Quay:10408,Folkvangveien,59.941027,10.917401,NSR:Quay:10408,298
NSR:Quay:12084,Etterstadgata,59.909849,10.790538,NSR:Quay:12084,299
NSR:Quay:12081,Vålerenga,59.908691,10.78609,NSR:Quay:12081,300
NSR:Quay:12076,Galgeberg,59.907649,10.781102,NSR:Quay:12076,242
NSR:Quay:12050,Harald Hårdrådes plass,59.907661,10.773012,NSR:Quay:12050,301
NSR:Quay:12035,Oslo gate,59.908402,10.769351,NSR:Quay:12035,302
NSR:Quay:11963,Oslo bussterminal,59.911437,10.758716,NSR:Quay:11963,1
NSR:Quay:10492,Stovner T,59.961111,10.922666,NSR:Quay:10492,169
NSR:Quay:10499,Øvre Fossum,59.958802,10.926585,NSR:Quay:10499,168
NSR:Quay:10503,Olaus Fjørtofts vei,59.95936,10.930042,NSR:Quay:10503,167
NSR:Quay:10506,Johnny Svorkmos vei,59.956948,10.935044,NSR:Quay:10506,166
NSR:Quay:10581,Stovnerfaret,59.954896,10.934151,NSR:Quay:10581,165
NSR:Quay:10589,Fjellstuveien,59.950006,10.938239,NSR:Quay:10589,164
NSR:Quay:10586,Stovner bru,59.946983,10.939274,NSR:Quay:10586,163
NSR:Quay:12264,Simensbråten,59.895487,10.78708,NSR:Quay:12264,139
NSR:Quay:12281,Ekeberg hageby,59.897277,10.781802,NSR:Quay:12281,303
NSR:Quay:12164,Ekeberg camping,59.898148,10.775726,NSR:Quay:12164,304
NSR:Quay:12173,Brannfjellveien,59.900269,10.773817,NSR:Quay:12173,305
NSR:Quay:12177,Utsikten,59.900327,10.779903,NSR:Quay:12177,306
NSR:Quay:12187,Ryenbergveien,59.901022,10.786662,NSR:Quay:12187,307
NSR:Quay:104025,St. Halvards plass,59.906249,10.767956,NSR:Quay:104025,308
NSR:Quay:104026,Munkegata,59.908527,10.768147,NSR:Quay:104026,302
NSR:Quay:104028,Oslo bussterminal,59.911076,10.759847,NSR:Quay:104028,1
NSR:Quay:109952,Jernbanetorget,59.912477,10.74866,NSR:Quay:109952,45
NSR:Quay:11692,Sagene,59.938002,10.750165,NSR:Quay:11692,50
NSR:Quay:11698,Voldsløkka,59.940565,10.750372,NSR:Quay:11698,309
NSR:Quay:11335,Tåsen allé,59.944155,10.748529,NSR:Quay:11335,310
NSR:Quay:11330,Østhellinga,59.947566,10.749663,NSR:Quay:11330,311
NSR:Quay:11344,Tåsen senter,59.952057,10.750833,NSR:Quay:11344,60
NSR:Quay:11960,Oslo bussterminal,59.911162,10.759577,NSR:Quay:11960,1
NSR:Quay:12036,Oslo gate,59.90832,10.769359,NSR:Quay:12036,302
NSR:Quay:12049,Harald Hårdrådes plass,59.907446,10.77236,NSR:Quay:12049,301
NSR:Quay:12075,Galgeberg,59.907843,10.782215,NSR:Quay:12075,242
NSR:Quay:12079,Vålerenga,59.90885,10.787531,NSR:Quay:12079,300
NSR:Quay:12083,Etterstadgata,59.910053,10.791519,NSR:Quay:12083,299
NSR:Quay:11240,Fjellhus,59.920915,10.825302,NSR:Quay:11240,650
NSR:Quay:10355,Sam Eydes vei,59.936755,10.880831,NSR:Quay:10355,312
NSR:Quay:10409,Folkvangveien,59.940997,10.917846,NSR:Quay:10409,298
NSR:Quay:10346,Karihaugen,59.93755,10.926488,NSR:Quay:10346,297
NSR:Quay:12305,Ljansbakken,59.850333,10.78189,NSR:Quay:12305,651
NSR:Quay:105756,Jernbanetorget,59.909093,10.748582,NSR:Quay:105756,118
NSR:Quay:10412,Bjørnheim,59.94191,10.91331,NSR:Quay:10412,313
NSR:Quay:10424,Høybråten kirke,59.944563,10.90977,NSR:Quay:10424,314
NSR:Quay:10416,Høystakkveien,59.946186,10.905261,NSR:Quay:10416,652
NSR:Quay:10427,Solbakken,59.944331,10.916915,NSR:Quay:10427,315
NSR:Quay:10433,Bikuben,59.944264,10.924503,NSR:Quay:10433,316
NSR:Quay:10439,Karl Andersens vei,59.94158,10.925885,NSR:Quay:10439,317
NSR:Quay:10443,Granliveien,59.940092,10.928835,NSR:Quay:10443,318
NSR:Quay:10447,Fjellborg,59.942627,10.93215,NSR:Quay:10447,319
NSR:Quay:10452,Vardeheim,59.944637,10.930474,NSR:Quay:10452,320
NSR:Quay:10457,Høybråten park,59.94568,10.933526,NSR:Quay:10457,321
NSR:Quay:10493,Stovner T,59.961291,10.922996,NSR:Quay:10493,169
NSR:Quay:8129,Homansbyen,59.923526,10.727337,NSR:Quay:8129,96
NSR:Quay:10428,Mortensrud T,59.849654,10.829145,NSR:Quay:10428,288
NSR:Quay:10441,Lofsrudhøgda,59.846479,10.828601,NSR:Quay:10441,653
NSR:Quay:10446,Brunas vei,59.843838,10.82992,NSR:Quay:10446,322
NSR:Quay:10450,Blakkens vei,59.841499,10.831524,NSR:Quay:10450,323
NSR:Quay:10516,Bjørnholt øvre,59.836215,10.834507,NSR:Quay:10516,324
NSR:Quay:10548,Bjørnholt skole,59.834448,10.837967,NSR:Quay:10548,325
NSR:Quay:10524,Nyjordet,59.831016,10.837466,NSR:Quay:10524,326
NSR:Quay:10529,Bjørndal senter,59.825659,10.835459,NSR:Quay:10529,327
NSR:Quay:10533,Meklenborg,59.823626,10.835663,NSR:Quay:10533,328
NSR:Quay:10536,Bjørndal,59.821265,10.83996,NSR:Quay:10536,329
NSR:Quay:105730,Gaustadalléen,59.945587,10.717289,NSR:Quay:105730,58
NSR:Quay:105729,Forskningsparken T,59.944031,10.720628,NSR:Quay:105729,330
NSR:Quay:109569,Universitetet Blindern,59.941443,10.721449,NSR:Quay:109569,331
NSR:Quay:105727,John Colletts plass,59.939711,10.728809,NSR:Quay:105727,332
NSR:Quay:11504,Adamstuen,59.932718,10.734536,NSR:Quay:11504,333
NSR:Quay:104063,Stensgata,59.929504,10.732929,NSR:Quay:104063,334
NSR:Quay:104067,Bislett,59.925887,10.730971,NSR:Quay:104067,41
NSR:Quay:101336,Welhavens gate,59.921537,10.730059,NSR:Quay:101336,654
NSR:Quay:101400,Sars' gate,59.921494,10.771223,NSR:Quay:101400,335
NSR:Quay:101466,Hausmanns bru,59.914362,10.759633,NSR:Quay:101466,119
NSR:Quay:11975,Oslo bussterminal,59.911553,10.760141,NSR:Quay:11975,1
NSR:Quay:101401,Sars' gate,59.921614,10.771708,NSR:Quay:101401,335
NSR:Quay:10820,Vestbyveien,59.95278,10.890793,NSR:Quay:10820,655
NSR:Quay:10556,Jernkroken,59.954256,10.896973,NSR:Quay:10556,656
NSR:Quay:10545,Haugenstua torg,59.952706,10.908981,NSR:Quay:10545,657
NSR:Quay:10569,Smiuvegen,59.952847,10.923876,NSR:Quay:10569,336
NSR:Quay:10575,Jorines vei,59.953041,10.928741,NSR:Quay:10575,337
NSR:Quay:10580,Stovnerfaret,59.954806,10.934213,NSR:Quay:10580,165
NSR:Quay:11165,Tamburveien,59.950607,10.768385,NSR:Quay:11165,128
NSR:Quay:11162,Nydalen T,59.948842,10.769504,NSR:Quay:11162,127
NSR:Quay:11801,Storo senter,59.945728,10.776502,NSR:Quay:11801,64
NSR:Quay:104047,Storo,59.945238,10.778639,NSR:Quay:104047,64
NSR:Quay:11181,Nordre Åsen,59.944175,10.78667,NSR:Quay:11181,338
NSR:Quay:11183,Aschehougs vei,59.946475,10.792691,NSR:Quay:11183,339
NSR:Quay:11190,Sanatoriet,59.949716,10.79337,NSR:Quay:11190,340
NSR:Quay:11204,Akebakken,59.952742,10.797375,NSR:Quay:11204,341
NSR:Quay:11209,Grefsenseteren,59.955444,10.798651,NSR:Quay:11209,342
NSR:Quay:11215,Trollveiskrysset,59.958452,10.798289,NSR:Quay:11215,343
NSR:Quay:11217,Kirketomta,59.959977,10.797589,NSR:Quay:11217,344
NSR:Quay:11222,Gulldalen,59.962657,10.795948,NSR:Quay:11222,345
NSR:Quay:11223,Heia,59.964988,10.796286,NSR:Quay:11223,346
NSR:Quay:11230,Rønningen,59.96677,10.795596,NSR:Quay:11230,347
NSR:Quay:11232,Rundhaugen,59.968576,10.79591,NSR:Quay:11232,348
NSR:Quay:12250,Kringlevann,59.976385,10.803737,NSR:Quay:12250,349
NSR:Quay:12246,Setervollveien,59.977188,10.806347,NSR:Quay:12246,350
NSR:Quay:12242,Linderudkollen,59.976434,10.810799,NSR:Quay:12242,351
NSR:Quay:12239,Kalland,59.978443,10.814409,NSR:Quay:12239,352
NSR:Quay:12232,Solemskogen,59.979201,10.817561,NSR:Quay:12232,353
NSR:Quay:104030,Solli,59.914834,10.718713,NSR:Quay:104030,93
NSR:Quay:7813,Frogner kirke,59.917891,10.706984,NSR:Quay:7813,115
NSR:Quay:7843,Karenslyst allé,59.918363,10.688158,NSR:Quay:7843,113
NSR:Quay:7857,Kongsgården,59.909369,10.680787,NSR:Quay:7857,112
NSR:Quay:7921,Folkemuseet,59.907708,10.686371,NSR:Quay:7921,111
NSR:Quay:7912,Vikingskipene,59.904523,10.68646,NSR:Quay:7912,110
NSR:Quay:7903,Fredriksborg,59.903546,10.686835,NSR:Quay:7903,109
NSR:Quay:7892,Bygdøhus,59.901396,10.681825,NSR:Quay:7892,108
NSR:Quay:7881,Frimurerhjemmet,59.901219,10.678864,NSR:Quay:7881,107
NSR:Quay:7871,Ro,59.900987,10.675608,NSR:Quay:7871,106
NSR:Quay:7864,Huk,59.898227,10.675122,NSR:Quay:7864,105
NSR:Quay:11800,Voksen skog,59.975061,10.644456,NSR:Quay:11800,266
NSR:Quay:11804,Grindbakken,59.970948,10.6441,NSR:Quay:11804,265
NSR:Quay:11810,Åsly,59.968627,10.644558,NSR:Quay:11810,264
NSR:Quay:11814,Liabakken,59.966661,10.644344,NSR:Quay:11814,263
NSR:Quay:11788,Himstadplassen,59.963514,10.645714,NSR:Quay:11788,658
NSR:Quay:11784,Sagstua,59.960406,10.649322,NSR:Quay:11784,262
NSR:Quay:11779,Nordre Jarbakken,59.956616,10.654061,NSR:Quay:11779,261
NSR:Quay:11775,Jarbakken,59.954845,10.657226,NSR:Quay:11775,260
NSR:Quay:11676,Amagerveien,59.952426,10.661011,NSR:Quay:11676,259
NSR:Quay:11673,Arnebråtveien,59.950809,10.665559,NSR:Quay:11673,258
NSR:Quay:11666,Gressbanen,59.950474,10.67528,NSR:Quay:11666,257
NSR:Quay:11660,Holmenenga,59.948468,10.676238,NSR:Quay:11660,256
NSR:Quay:11656,Holmendammen,59.944856,10.679486,NSR:Quay:11656,255
NSR:Quay:11652,Bernhard Herres vei,59.941664,10.681635,NSR:Quay:11652,254
NSR:Quay:11954,Smestad,59.93658,10.68698,NSR:Quay:11954,659
NSR:Quay:11941,Heggeli,59.935383,10.691915,NSR:Quay:11941,660
NSR:Quay:11926,Volvat,59.932521,10.70438,NSR:Quay:11926,252
NSR:Quay:8076,Majorstuen,59.929916,10.715827,NSR:Quay:8076,47
NSR:Quay:11444,Frøensalléen,59.935355,10.709961,NSR:Quay:11444,354
NSR:Quay:11465,Vinderen T,59.94247,10.704173,NSR:Quay:11465,355
NSR:Quay:11471,Viggo Hansteens vei,59.943075,10.700501,NSR:Quay:11471,74
NSR:Quay:11529,Grimelundsveien,59.944763,10.692449,NSR:Quay:11529,356
NSR:Quay:11532,Tråkka,59.946215,10.688904,NSR:Quay:11532,661
NSR:Quay:11536,Dalsveien,59.948695,10.688871,NSR:Quay:11536,662
NSR:Quay:11540,Stasjonsveien,59.950196,10.68889,NSR:Quay:11540,663
NSR:Quay:11547,Holmenhavna,59.950796,10.680513,NSR:Quay:11547,357
NSR:Quay:11582,Lybekkveien,59.95299,10.673974,NSR:Quay:11582,358
NSR:Quay:11585,Krags vei,59.954979,10.666064,NSR:Quay:11585,359
NSR:Quay:11588,Ryghs vei,59.956134,10.66181,NSR:Quay:11588,360
NSR:Quay:11702,Orebakken,59.952929,10.656443,NSR:Quay:11702,361
NSR:Quay:11696,Hovseter skole,59.949486,10.656449,NSR:Quay:11696,362
NSR:Quay:11690,Hovseter,59.945733,10.655856,NSR:Quay:11690,77
NSR:Quay:11710,Ostadalsveien,59.9455,10.647729,NSR:Quay:11710,363
NSR:Quay:11715,Aslakveien,59.94267,10.646988,NSR:Quay:11715,364
NSR:Quay:11719,Røa næringspark,59.941392,10.64915,NSR:Quay:11719,664
NSR:Quay:11723,Ullerntoppen,59.938627,10.648343,NSR:Quay:11723,365
NSR:Quay:10426,Mortensrud T,59.849831,10.828853,NSR:Quay:10426,288
NSR:Quay:10481,Dalsåsen,59.849922,10.835953,NSR:Quay:10481,366
NSR:Quay:10472,Mortensrudkrysset,59.849548,10.836208,NSR:Quay:10472,366
NSR:Quay:12364,Leirskallen,59.862348,10.827174,NSR:Quay:12364,367
NSR:Quay:12360,Øgården,59.862088,10.82348,NSR:Quay:12360,368
NSR:Quay:12358,Munkerudkleiva,59.861451,10.819822,NSR:Quay:12358,369
NSR:Quay:12340,Nordstrandhallen,59.864209,10.809415,NSR:Quay:12340,370
NSR:Quay:12343,Freidigveien,59.865828,10.809367,NSR:Quay:12343,371
NSR:Quay:12347,Bakkerudveien,59.868998,10.807985,NSR:Quay:12347,372
NSR:Quay:10653,Lambertseterveien,59.871247,10.807175,NSR:Quay:10653,373
NSR:Quay:10663,Mylskerudveien,59.875218,10.805231,NSR:Quay:10663,374
NSR:Quay:12287,Karlsrud,59.879775,10.801036,NSR:Quay:12287,375
NSR:Quay:12290,Skogholtveien,59.879847,10.796283,NSR:Quay:12290,376
NSR:Quay:12228,Åsliveien,59.879678,10.79098,NSR:Quay:12228,377
NSR:Quay:12224,Holtet,59.881594,10.787053,NSR:Quay:12224,378
NSR:Quay:12233,Bekkelagshjemmet,59.885224,10.785318,NSR:Quay:12233,379
NSR:Quay:12159,Ekeberghallen,59.891132,10.780774,NSR:Quay:12159,380
NSR:Quay:12167,Ekeberg camping,59.897505,10.775869,NSR:Quay:12167,304
NSR:Quay:122003,Jernbanetorget,59.909803,10.748062,NSR:Quay:122003,118
NSR:Quay:11819,Skøyen stasjon,59.92208,10.680596,NSR:Quay:11819,251
NSR:Quay:11845,Thune,59.921854,10.687551,NSR:Quay:11845,250
NSR:Quay:7821,Odins gate,59.919471,10.703723,NSR:Quay:7821,249
NSR:Quay:8160,Frogner plass,59.921915,10.704946,NSR:Quay:8160,248
NSR:Quay:8181,Vigelandsparken,59.924676,10.708575,NSR:Quay:8181,247
NSR:Quay:8210,Frogner stadion,59.927204,10.712748,NSR:Quay:8210,246
NSR:Quay:8042,Majorstuen,59.929505,10.717431,NSR:Quay:8042,47
NSR:Quay:11893,Helgesens gate,59.921317,10.775067,NSR:Quay:11893,245
NSR:Quay:11925,Tøyenparken,59.916586,10.77603,NSR:Quay:11925,244
NSR:Quay:11908,Tøyen,59.914559,10.776778,NSR:Quay:11908,243
NSR:Quay:12091,Kjølberggata,59.910047,10.77729,NSR:Quay:12091,665
NSR:Quay:12070,Galgeberg,59.908206,10.780844,NSR:Quay:12070,242
NSR:Quay:10988,Bjerke,59.942258,10.808742,NSR:Quay:10988,381
NSR:Quay:11008,Årvoll senter,59.945377,10.808857,NSR:Quay:11008,666
NSR:Quay:11011,Årvollveien,59.946175,10.812014,NSR:Quay:11011,271
NSR:Quay:11034,Stig,59.947137,10.817869,NSR:Quay:11034,270
NSR:Quay:11029,Tonsenhagen torg,59.947243,10.822493,NSR:Quay:11029,269
NSR:Quay:11024,Tonsenhagen,59.946015,10.828322,NSR:Quay:11024,268
NSR:Quay:10968,Kolåsbakken,59.944374,10.832034,NSR:Quay:10968,267
NSR:Quay:10959,Linderud senter,59.94369,10.836685,NSR:Quay:10959,9
NSR:Quay:10665,Kalbakkveien,59.951317,10.865626,NSR:Quay:10665,15
NSR:Quay:10723,Grorud T,59.96096,10.883554,NSR:Quay:10723,170
NSR:Quay:11761,Nordpolen skole,59.940052,10.772827,NSR:Quay:11761,126
NSR:Quay:11774,Sinsen T,59.938823,10.779695,NSR:Quay:11774,382
NSR:Quay:10989,Refstadsvingen,59.941705,10.816888,NSR:Quay:10989,383
NSR:Quay:10996,Bjerkedalen park,59.940336,10.822011,NSR:Quay:10996,384
NSR:Quay:10901,Økernbråten,59.939353,10.825117,NSR:Quay:10901,385
NSR:Quay:10888,Vollebekkveien,59.937487,10.825414,NSR:Quay:10888,667
NSR:Quay:10921,Nedre Vollebekk,59.933549,10.827477,NSR:Quay:10921,386
NSR:Quay:10256,Nordre Hovin,59.931198,10.828346,NSR:Quay:10256,23
NSR:Quay:110926,Knud Bryns vei,59.928359,10.823759,NSR:Quay:110926,387
NSR:Quay:11302,Nåkkves vei,59.91827,10.846,NSR:Quay:11302,388
NSR:Quay:111211,Persveien,59.923587,10.816394,NSR:Quay:111211,389
NSR:Quay:10356,Sam Eydes vei,59.936923,10.880705,NSR:Quay:10356,312
NSR:Quay:10352,IKEA Furuset,59.934856,10.871556,NSR:Quay:10352,294
NSR:Quay:10385,Kjelsrud,59.932572,10.861337,NSR:Quay:10385,19
NSR:Quay:10972,Haraldrudveien,59.924545,10.82565,NSR:Quay:10972,390
NSR:Quay:8079,Majorstuen,59.929528,10.716088,NSR:Quay:8079,47
NSR:Quay:11583,Ullevål sykehus,59.936362,10.732071,NSR:Quay:11583,282
NSR:Quay:11629,Ullevålsalléen,59.938055,10.730354,NSR:Quay:11629,281
NSR:Quay:11668,Eventyrveien,59.94469,10.731795,NSR:Quay:11668,280
NSR:Quay:11301,Blindern vgs.,59.951139,10.728905,NSR:Quay:11301,279
NSR:Quay:11308,Solvang,59.954084,10.728984,NSR:Quay:11308,278
NSR:Quay:11399,Nordbergveien,59.957658,10.732889,NSR:Quay:11399,277
NSR:Quay:11395,Kongleveien,59.961406,10.736368,NSR:Quay:11395,668
NSR:Quay:11385,Nordberghjemmet,59.961311,10.74479,NSR:Quay:11385,143
NSR:Quay:11377,Havnabakken,59.959196,10.75421,NSR:Quay:11377,276
NSR:Quay:11417,Korsvollbakken,59.958042,10.762498,NSR:Quay:11417,275
NSR:Quay:11435,Svensenga,59.964187,10.770885,NSR:Quay:11435,669
NSR:Quay:11251,Kjelsåsalléen,59.963174,10.782885,NSR:Quay:11251,97
NSR:Quay:109372,Brannvaktveien,59.952639,10.792901,NSR:Quay:109372,274
NSR:Quay:11275,Grefsenlia,59.950592,10.796755,NSR:Quay:11275,670
NSR:Quay:11050,Lofthus,59.947136,10.803278,NSR:Quay:11050,273
NSR:Quay:11056,Årrundveien,59.945379,10.804783,NSR:Quay:11056,272
NSR:Quay:10379,Trosterudkrysset,59.929552,10.865098,NSR:Quay:10379,30
NSR:Quay:11428,Brekkehagan,59.965047,10.766653,NSR:Quay:11428,221
NSR:Quay:11154,Helsfyr,59.912208,10.800231,NSR:Quay:11154,28
NSR:Quay:11159,Etterstad skole,59.910032,10.795489,NSR:Quay:11159,671
NSR:Quay:12043,Politihuset,59.910286,10.767924,NSR:Quay:12043,391
NSR:Quay:11938,Tøyengata,59.91236,10.764732,NSR:Quay:11938,392
NSR:Quay:109248,Historisk museum,59.916904,10.73511,NSR:Quay:109248,296
NSR:Quay:109224,Holbergs plass,59.919941,10.735638,NSR:Quay:109224,672
NSR:Quay:11535,Stensberggata,59.922607,10.74108,NSR:Quay:11535,393
NSR:Quay:11520,St. Hanshaugen,59.924574,10.739951,NSR:Quay:11520,39
NSR:Quay:11545,Colletts gate,59.92704,10.738873,NSR:Quay:11545,394
NSR:Quay:11566,Lovisenberg,59.930666,10.743006,NSR:Quay:11566,395
NSR:Quay:11573,Tannlegehøyskolen,59.932791,10.742228,NSR:Quay:11573,396
NSR:Quay:11604,Lindern,59.934375,10.743687,NSR:Quay:11604,49
NSR:Quay:11158,Nydalen T,59.948984,10.767771,NSR:Quay:11158,127
NSR:Quay:11936,Borgen,59.934406,10.697822,NSR:Quay:11936,253
NSR:Quay:11837,Skøyen,59.923102,10.681629,NSR:Quay:11837,673
NSR:Quay:102318,Rosenborg,59.924166,10.723745,NSR:Quay:102318,397
NSR:Quay:11979,Oslo bussterminal,59.912057,10.757071,NSR:Quay:11979,1
NSR:Quay:111002,Grorud stasjon,59.948535,10.888447,NSR:Quay:111002,173
NSR:Quay:10368,Prof. Birkelands vei,59.943475,10.884852,NSR:Quay:10368,295
NSR:Quay:10359,Alnaparkveien,59.939275,10.880459,NSR:Quay:10359,674
NSR:Quay:11459,Smalvollveien,59.924407,10.842575,NSR:Quay:11459,293
NSR:Quay:11241,Ole Deviks vei,59.922352,10.830562,NSR:Quay:11241,675
NSR:Quay:11248,Caspar Storms vei,59.919733,10.829749,NSR:Quay:11248,292
NSR:Quay:11254,Fretex,59.916887,10.8269,NSR:Quay:11254,291
NSR:Quay:11225,Bryn skole,59.913859,10.824406,NSR:Quay:11225,283
NSR:Quay:11220,Klosterheim,59.913024,10.821767,NSR:Quay:11220,290
NSR:Quay:11197,Bryn brannstasjon,59.912733,10.813806,NSR:Quay:11197,289
NSR:Quay:10418,Liakollen,59.829331,10.799327,NSR:Quay:10418,162
NSR:Quay:12446,Holmlia stasjon,59.834495,10.797688,NSR:Quay:12446,159
NSR:Quay:11766,Haarklous plass,59.938154,10.774168,NSR:Quay:11766,125
NSR:Quay:11747,Sæveruds plass,59.935246,10.774852,NSR:Quay:11747,124
NSR:Quay:11856,Dælenenga,59.928045,10.766307,NSR:Quay:11856,123
NSR:Quay:11838,Birkelunden,59.926824,10.761006,NSR:Quay:11838,122
NSR:Quay:101741,Sofienbergparken,59.923184,10.761119,NSR:Quay:101741,121
NSR:Quay:101669,Herslebs gate,59.919192,10.762307,NSR:Quay:101669,120
NSR:Quay:7947,Langvik,59.901625,10.687597,NSR:Quay:7947,398
NSR:Quay:7937,Herbernveien,59.902143,10.695544,NSR:Quay:7937,399
NSR:Quay:7929,Bygdøynes,59.903108,10.698428,NSR:Quay:7929,676
NSR:Quay:7936,Herbernveien,59.901921,10.694716,NSR:Quay:7936,399
NSR:Quay:7946,Langvik,59.901676,10.687565,NSR:Quay:7946,398
NSR:Quay:12435,Skovbakken syd,59.837514,10.794537,NSR:Quay:12435,677
NSR:Quay:12437,Ravnkroken,59.837189,10.789387,NSR:Quay:12437,400
NSR:Quay:12438,Ravnåsen,59.838065,10.786801,NSR:Quay:12438,678
NSR:Quay:12436,Ravnkroken,59.836949,10.790441,NSR:Quay:12436,400
NSR:Quay:12402,Hauketo stasjon,59.846302,10.803498,NSR:Quay:12402,202
NSR:Quay:10459,Bjørnerud,59.843889,10.819068,NSR:Quay:10459,401
NSR:Quay:12423,Nebbejordet,59.842992,10.813031,NSR:Quay:12423,679
NSR:Quay:10455,Oredalen,59.840299,10.828046,NSR:Quay:10455,402
NSR:Quay:10511,Bjørnholt nedre,59.836456,10.834756,NSR:Quay:10511,324
NSR:Quay:10544,Langteigåsen,59.818018,10.840011,NSR:Quay:10544,403
NSR:Quay:99833,Hjortnes,59.910045,10.71034,NSR:Quay:99833,680
NSR:Quay:12314,Siksakveien,59.854956,10.785431,NSR:Quay:12314,87
NSR:Quay:12378,Ingiers vei,59.849272,10.788663,NSR:Quay:12378,404
NSR:Quay:12383,Kronveien,59.849997,10.79897,NSR:Quay:12383,405
NSR:Quay:12406,Hauketo stasjon,59.845947,10.803125,NSR:Quay:12406,202
NSR:Quay:12415,Sveavegen,59.840401,10.804997,NSR:Quay:12415,406
NSR:Quay:12418,Lerdal,59.837137,10.806534,NSR:Quay:12418,407
NSR:Quay:12464,Prinsdal,59.834115,10.807368,NSR:Quay:12464,408
NSR:Quay:12466,Prinsdalsbakken,59.829318,10.808718,NSR:Quay:12466,409
NSR:Quay:12469,Trygve Strømbergs vei,59.825835,10.809222,NSR:Quay:12469,410
NSR:Quay:11910,Tøyen skole,59.914978,10.773299,NSR:Quay:11910,411
NSR:Quay:11109,Ensjø T,59.91482,10.787142,NSR:Quay:11109,412
NSR:Quay:103595,Helsfyr T,59.912867,10.801709,NSR:Quay:103595,28
NSR:Quay:11075,Hasle,59.924377,10.792265,NSR:Quay:11075,25
NSR:Quay:11740,Vogts gate,59.93174,10.763359,NSR:Quay:11740,413
NSR:Quay:11682,Vøyenbrua,59.933062,10.758319,NSR:Quay:11682,414
NSR:Quay:11678,Arkitekt Rivertz plass,59.934754,10.748607,NSR:Quay:11678,235
NSR:Quay:10985,Bjerke,59.942633,10.807513,NSR:Quay:10985,381
NSR:Quay:11329,Stordamveien,59.911222,10.847602,NSR:Quay:11329,181
NSR:Quay:11338,Postkassene,59.912369,10.851397,NSR:Quay:11338,415
NSR:Quay:11420,Rundtjernveien,59.915015,10.850595,NSR:Quay:11420,416
NSR:Quay:11426,Hellerud terrasse,59.913258,10.856769,NSR:Quay:11426,681
NSR:Quay:11429,Hellerudgrenda,59.912928,10.858996,NSR:Quay:11429,417
NSR:Quay:11433,Krokstien,59.910509,10.860066,NSR:Quay:11433,682
NSR:Quay:11436,Grankollveien,59.911682,10.860629,NSR:Quay:11436,683
NSR:Quay:11430,Hellerudgrenda,59.912867,10.859076,NSR:Quay:11430,417
NSR:Quay:11440,Landeroveien,59.916038,10.857051,NSR:Quay:11440,684
NSR:Quay:11357,Haugerudveien,59.917513,10.851421,NSR:Quay:11357,418
NSR:Quay:10722,Grorud T,59.961041,10.882865,NSR:Quay:10722,170
NSR:Quay:11007,Årvoll senter,59.944226,10.807913,NSR:Quay:11007,685
NSR:Quay:11795,Fernanda Nissen skole,59.946972,10.769624,NSR:Quay:11795,228
NSR:Quay:11725,Kristoffer Aamots bro,59.946979,10.764142,NSR:Quay:11725,227
NSR:Quay:11603,Lindern,59.934673,10.743755,NSR:Quay:11603,49
NSR:Quay:11572,Tannlegehøyskolen,59.932996,10.742215,NSR:Quay:11572,396
NSR:Quay:11568,Lovisenberg,59.9307,10.742765,NSR:Quay:11568,395
NSR:Quay:11544,Colletts gate,59.927028,10.738581,NSR:Quay:11544,394
NSR:Quay:11519,St. Hanshaugen,59.923957,10.739841,NSR:Quay:11519,39
NSR:Quay:11534,Stensberggata,59.921978,10.741306,NSR:Quay:11534,393
NSR:Quay:11539,Nordahl Bruns gate,59.919226,10.743602,NSR:Quay:11539,686
NSR:Quay:109244,Holbergs plass,59.917952,10.736765,NSR:Quay:109244,296
NSR:Quay:104029,Oslo bussterminal,59.911109,10.759252,NSR:Quay:104029,1
NSR:Quay:11939,Tøyengata,59.912342,10.764292,NSR:Quay:11939,392
NSR:Quay:12044,Politihuset,59.910278,10.76772,NSR:Quay:12044,391
NSR:Quay:11160,Etterstad skole,59.909126,10.794716,NSR:Quay:11160,687
NSR:Quay:11163,Etterstad vest,59.906956,10.796945,NSR:Quay:11163,688
NSR:Quay:11168,Etterstad sør,59.907586,10.801932,NSR:Quay:11168,689
NSR:Quay:11173,Etterstadkroken,59.909759,10.803758,NSR:Quay:11173,690
NSR:Quay:11152,Helsfyr,59.912163,10.800837,NSR:Quay:11152,28
NSR:Quay:10976,Persveien,59.922682,10.816373,NSR:Quay:10976,389
NSR:Quay:106157,Ulvenkrysset,59.919633,10.817159,NSR:Quay:106157,31
NSR:Quay:104027,Munkegata,59.908087,10.76775,NSR:Quay:104027,302
NSR:Quay:104024,St. Halvards plass,59.905996,10.767758,NSR:Quay:104024,308
NSR:Quay:12110,Lodalen,59.90329,10.77854,NSR:Quay:12110,156
NSR:Quay:12106,Kværner,59.901899,10.78833,NSR:Quay:12106,155
NSR:Quay:12165,Ekeberg camping,59.897698,10.775464,NSR:Quay:12165,304
NSR:Quay:12158,Ekeberghallen,59.891219,10.780565,NSR:Quay:12158,380
NSR:Quay:12234,Bekkelagshjemmet,59.88582,10.784712,NSR:Quay:12234,379
NSR:Quay:12225,Holtet,59.881156,10.787061,NSR:Quay:12225,378
NSR:Quay:12227,Åsliveien,59.879629,10.789993,NSR:Quay:12227,377
NSR:Quay:12289,Skogholtveien,59.879823,10.796591,NSR:Quay:12289,376
NSR:Quay:12288,Karlsrud,59.879834,10.800548,NSR:Quay:12288,375
NSR:Quay:10662,Mylskerudveien,59.874693,10.805418,NSR:Quay:10662,374
NSR:Quay:10654,Lambertseterveien,59.87129,10.806974,NSR:Quay:10654,373
NSR:Quay:12346,Bakkerudveien,59.869274,10.807744,NSR:Quay:12346,372
NSR:Quay:12342,Freidigveien,59.865822,10.8092,NSR:Quay:12342,371
NSR:Quay:12341,Nordstrandhallen,59.86417,10.809208,NSR:Quay:12341,370
NSR:Quay:12359,Munkerudkleiva,59.861471,10.82016,NSR:Quay:12359,369
NSR:Quay:12361,Øgården,59.862003,10.823515,NSR:Quay:12361,368
NSR:Quay:12365,Leirskallen,59.862275,10.827517,NSR:Quay:12365,367
NSR:Quay:7224,Jernbanetorget,59.909736,10.749435,NSR:Quay:7224,118
NSR:Quay:109652,Majorstuen,59.929419,10.713794,NSR:Quay:109652,47
NSR:Quay:109020,Majorstuen,59.928152,10.716369,NSR:Quay:109020,140
NSR:Quay:11318,Tveita,59.913191,10.840864,NSR:Quay:11318,208
NSR:Quay:11282,Tveten gård,59.911158,10.836615,NSR:Quay:11282,285
NSR:Quay:11277,Hellerud,59.910532,10.831758,NSR:Quay:11277,284
NSR:Quay:7373,Nationaltheatret,59.91419,10.731347,NSR:Quay:7373,116
NSR:Quay:102096,Nationaltheatret,59.91522,10.730601,NSR:Quay:102096,691
NSR:Quay:11971,Oslo bussterminal,59.911593,10.758891,NSR:Quay:11971,1
NSR:Quay:11758,Sandaker senter,59.93937,10.76927,NSR:Quay:11758,104
NSR:Quay:104016,Grefsenveien,59.942798,10.773586,NSR:Quay:104016,103
NSR:Quay:104014,Disen,59.946292,10.787783,NSR:Quay:104014,102
NSR:Quay:104012,Doktor Smiths vei,59.950127,10.790122,NSR:Quay:104012,101
NSR:Quay:104010,Glads vei,59.952338,10.785401,NSR:Quay:104010,100
NSR:Quay:111019,Kjelsåsalléen,59.963193,10.784325,NSR:Quay:111019,97
NSR:Quay:11824,Skøyen stasjon,59.922905,10.67847,NSR:Quay:11824,251
NSR:Quay:11854,Hoff,59.92552,10.675302,NSR:Quay:11854,419
NSR:Quay:11859,Hoff terrasse,59.927798,10.675444,NSR:Quay:11859,420
NSR:Quay:11864,Jarlsborgveien,59.930633,10.675841,NSR:Quay:11864,421
NSR:Quay:11868,Smestaddammen,59.934471,10.679325,NSR:Quay:11868,422
NSR:Quay:110586,Rikshospitalet,59.949408,10.717772,NSR:Quay:110586,692
NSR:Quay:102125,Gaustadveien,59.95399,10.717995,NSR:Quay:102125,423
NSR:Quay:101973,Øvre Sogn,59.956267,10.722227,NSR:Quay:101973,424
NSR:Quay:102699,Seterbråten,59.833007,10.827826,NSR:Quay:102699,425
NSR:Quay:106017,Sommerro,59.829164,10.830435,NSR:Quay:106017,426
NSR:Quay:10519,Mina Beiteplukks vei,59.831912,10.835164,NSR:Quay:10519,427
NSR:Quay:10523,Nyjordet,59.831167,10.837632,NSR:Quay:10523,326
NSR:Quay:10549,Bjørnholt skole,59.83432,10.838302,NSR:Quay:10549,325
NSR:Quay:10515,Bjørnholt øvre,59.836699,10.833882,NSR:Quay:10515,324
NSR:Quay:10449,Blakkens vei,59.84229,10.831358,NSR:Quay:10449,323
NSR:Quay:10445,Brunas vei,59.844637,10.829591,NSR:Quay:10445,322
NSR:Quay:10442,Lofsrudhøgda,59.847547,10.828713,NSR:Quay:10442,693
NSR:Quay:11792,Bogstad Camping,59.962061,10.642287,NSR:Quay:11792,428
NSR:Quay:11797,Peder Ankers plass,59.961023,10.640846,NSR:Quay:11797,429
NSR:Quay:11767,Linhusveien,59.957652,10.641589,NSR:Quay:11767,430
NSR:Quay:11771,Vennerstua,59.954535,10.64351,NSR:Quay:11771,431
NSR:Quay:11745,Røa kirke,59.949419,10.643931,NSR:Quay:11745,694
NSR:Quay:10726,Grorud T,59.960944,10.882871,NSR:Quay:10726,170
NSR:Quay:10606,Tiurleiken,59.963043,10.890227,NSR:Quay:10606,695
NSR:Quay:10615,Ravnkollen,59.9652,10.889554,NSR:Quay:10615,696
NSR:Quay:10618,Ravnkollbakken,59.967025,10.890144,NSR:Quay:10618,697
NSR:Quay:10622,Romsås kirke,59.968406,10.890474,NSR:Quay:10622,698
NSR:Quay:10625,Røverkollen,59.971787,10.899371,NSR:Quay:10625,699
NSR:Quay:10628,Øvre Svarttjern,59.971854,10.9044,NSR:Quay:10628,700
NSR:Quay:10634,Svarttjern,59.969336,10.905561,NSR:Quay:10634,701
NSR:Quay:10638,Emanuelfjell,59.966845,10.900342,NSR:Quay:10638,702
NSR:Quay:10607,Romsås senter,59.96465,10.895254,NSR:Quay:10607,703
NSR:Quay:10609,Orremyr,59.965169,10.898354,NSR:Quay:10609,704
NSR:Quay:10612,Gangtunnelen,59.962232,10.896836,NSR:Quay:10612,705
NSR:Quay:11990,Oslo bussterminal,59.9121,10.757236,NSR:Quay:11990,1
NSR:Quay:11143,Helsfyr T,59.913117,10.802253,NSR:Quay:11143,28
NSR:Quay:104017,Torshov,59.934504,10.764373,NSR:Quay:104017,52
NSR:Quay:104020,Biermanns gate,59.930655,10.761122,NSR:Quay:104020,432
NSR:Quay:106762,Nybrua,59.916828,10.757942,NSR:Quay:106762,433
NSR:Quay:104033,Niels Juels gate,59.916358,10.71531,NSR:Quay:104033,434
NSR:Quay:104036,Lille Frogner allé,59.918001,10.71218,NSR:Quay:104036,435
NSR:Quay:104039,Elisenberg,59.919585,10.708666,NSR:Quay:104039,436
NSR:Quay:104043,Frogner plass,59.921735,10.705651,NSR:Quay:104043,248
NSR:Quay:102319,Majorstuen,59.929088,10.71591,NSR:Quay:102319,47
NSR:Quay:109118,Holbergs plass,59.917663,10.732852,NSR:Quay:109118,706
NSR:Quay:102124,Øvre Sogn,59.956184,10.721994,NSR:Quay:102124,424
NSR:Quay:102126,Gaustadveien,59.953957,10.717764,NSR:Quay:102126,423
NSR:Quay:110567,Rikshospitalet,59.947825,10.718869,NSR:Quay:110567,707
NSR:Quay:11869,Smestaddammen,59.93445,10.67858,NSR:Quay:11869,422
NSR:Quay:11865,Jarlsborgveien,59.930095,10.67601,NSR:Quay:11865,421
NSR:Quay:11858,Hoff terrasse,59.927829,10.675246,NSR:Quay:11858,420
NSR:Quay:11855,Hoff,59.925246,10.675235,NSR:Quay:11855,419
NSR:Quay:107539,Skøyen stasjon,59.92277,10.678523,NSR:Quay:107539,251
NSR:Quay:11746,Røa kirke,59.950326,10.644609,NSR:Quay:11746,708
NSR:Quay:11772,Vennerstua,59.954453,10.643676,NSR:Quay:11772,431
NSR:Quay:11765,Linhusveien,59.957865,10.641656,NSR:Quay:11765,430
NSR:Quay:11798,Peder Ankers plass,59.960568,10.641117,NSR:Quay:11798,429
NSR:Quay:11791,Bogstad Camping,59.961935,10.641986,NSR:Quay:11791,428
NSR:Quay:12072,Bogstad badeplass,59.969801,10.638668,NSR:Quay:12072,437
NSR:Quay:12078,Bogstad gård,59.972677,10.629703,NSR:Quay:12078,438
NSR:Quay:12080,Strøm,59.978219,10.623034,NSR:Quay:12080,709
NSR:Quay:12086,Zinober,59.983185,10.621744,NSR:Quay:12086,439
NSR:Quay:12108,Bjørnsgard,59.985827,10.621625,NSR:Quay:12108,440
NSR:Quay:12092,Årnes,59.988066,10.6207,NSR:Quay:12092,441
NSR:Quay:12067,Wyllerveien,59.99152,10.623305,NSR:Quay:12067,710
NSR:Quay:12095,Bakk,59.993475,10.622468,NSR:Quay:12095,442
NSR:Quay:12097,Søndre Solberg,59.999304,10.619619,NSR:Quay:12097,443
NSR:Quay:12104,Nordre Solberg,60.007879,10.619177,NSR:Quay:12104,444
NSR:Quay:12143,Stubberud,60.01315,10.616187,NSR:Quay:12143,445
NSR:Quay:12137,Sørkedalen skole,60.016753,10.613276,NSR:Quay:12137,446
NSR:Quay:12132,Lokalet,60.016678,10.603172,NSR:Quay:12132,447
NSR:Quay:12130,Søndre Venner,60.017323,10.598872,NSR:Quay:12130,448
NSR:Quay:12125,Nordre Venner,60.017967,10.594777,NSR:Quay:12125,449
NSR:Quay:12112,Vestre Venner,60.017927,10.590788,NSR:Quay:12112,450
NSR:Quay:12121,Sandbråten,60.018698,10.585973,NSR:Quay:12121,451
NSR:Quay:12117,Skansebakken,60.017837,10.58378,NSR:Quay:12117,452
NSR:Quay:102317,Rosenborg,59.924137,10.723834,NSR:Quay:102317,397
NSR:Quay:110711,Bislett,59.927158,10.731371,NSR:Quay:110711,711
NSR:Quay:109119,Huitfeldts gate,59.915242,10.725796,NSR:Quay:109119,712
NSR:Quay:109539,Nationaltheatret,59.914094,10.730319,NSR:Quay:109539,116
NSR:Quay:10895,Bryn senter,59.903535,10.822606,NSR:Quay:10895,453
NSR:Quay:10864,Traktorveien,59.900378,10.814382,NSR:Quay:10864,713
NSR:Quay:10862,Manglerud senter,59.896669,10.813736,NSR:Quay:10862,454
NSR:Quay:10903,Manglerud skole,59.894308,10.821056,NSR:Quay:10903,455
NSR:Quay:10909,Skuronnveien,59.891792,10.821785,NSR:Quay:10909,456
NSR:Quay:10913,Treskeveien,59.889152,10.817926,NSR:Quay:10913,457
NSR:Quay:10929,Alléen,59.887786,10.814573,NSR:Quay:10929,151
NSR:Quay:10925,Smedberg,59.884032,10.819055,NSR:Quay:10925,714
NSR:Quay:10918,Abildsø,59.880039,10.826814,NSR:Quay:10918,150
NSR:Quay:10935,Bogerudmyra,59.882158,10.834298,NSR:Quay:10935,458
NSR:Quay:10734,Jøranstien,59.887873,10.835596,NSR:Quay:10734,459
NSR:Quay:10731,Østbyveien,59.888697,10.84356,NSR:Quay:10731,460
NSR:Quay:10721,Ulsrud T,59.889635,10.849313,NSR:Quay:10721,461
NSR:Quay:10737,Ulsrudveien,59.892528,10.84879,NSR:Quay:10737,462
NSR:Quay:11000,Oppsal senter,59.893043,10.840655,NSR:Quay:11000,463
NSR:Quay:11004,Løypeveien,59.896345,10.841773,NSR:Quay:11004,464
NSR:Quay:10971,Skøyenåsveien,59.89906,10.840982,NSR:Quay:10971,465
NSR:Quay:108604,Formerveien,59.900706,10.843948,NSR:Quay:108604,715
NSR:Quay:10975,Skøyenlia,59.902075,10.841081,NSR:Quay:10975,716
NSR:Quay:10970,Skøyenåsveien,59.899151,10.840816,NSR:Quay:10970,465
NSR:Quay:10962,Skøyenkroken,59.897893,10.837959,NSR:Quay:10962,466
NSR:Quay:10957,Skøyenåsen T,59.900597,10.835929,NSR:Quay:10957,467
NSR:Quay:10986,Østensjø skole,59.89897,10.831972,NSR:Quay:10986,468
NSR:Quay:10899,Rognerud,59.902106,10.825578,NSR:Quay:10899,469
NSR:Quay:10896,Bryn senter,59.903535,10.822496,NSR:Quay:10896,453
NSR:Quay:109651,Majorstuen,59.92994,10.713384,NSR:Quay:109651,47
NSR:Quay:12028,Åsjordet T,59.92848,10.646192,NSR:Quay:12028,470
NSR:Quay:11976,Oslo bussterminal,59.911671,10.758415,NSR:Quay:11976,1
NSR:Quay:12440,Sloreåsen,59.842065,10.794993,NSR:Quay:12440,471
NSR:Quay:10564,Klemetsrud skole,59.834278,10.843318,NSR:Quay:10564,472
NSR:Quay:10567,Maurtuveien,59.83231,10.852443,NSR:Quay:10567,473
NSR:Quay:10574,Godheim,59.832816,10.85958,NSR:Quay:10574,474
NSR:Quay:10579,Store Stensrud,59.828303,10.866586,NSR:Quay:10579,475
NSR:Quay:10582,Hanåveien,59.823591,10.872906,NSR:Quay:10582,476
NSR:Quay:10588,Lille Stensrud,59.819708,10.877001,NSR:Quay:10588,477
NSR:Quay:10591,Sværsvann bru,59.818157,10.888355,NSR:Quay:10591,478
NSR:Quay:11722,Ullerntoppen,59.938718,10.648225,NSR:Quay:11722,365
NSR:Quay:11716,Aslakveien,59.94266,10.647136,NSR:Quay:11716,364
NSR:Quay:11711,Ostadalsveien,59.945796,10.648013,NSR:Quay:11711,363
NSR:Quay:11691,Hovseter,59.946709,10.657591,NSR:Quay:11691,717
NSR:Quay:11697,Hovseter skole,59.949517,10.656623,NSR:Quay:11697,362
NSR:Quay:11701,Orebakken,59.952903,10.656588,NSR:Quay:11701,361
NSR:Quay:11589,Ryghs vei,59.956162,10.662242,NSR:Quay:11589,360
NSR:Quay:11584,Krags vei,59.95481,10.666035,NSR:Quay:11584,359
NSR:Quay:11580,Lybekkveien,59.95231,10.673867,NSR:Quay:11580,358
NSR:Quay:11546,Holmenhavna,59.95069,10.680621,NSR:Quay:11546,357
NSR:Quay:108250,Bjørnveien,59.946447,10.685428,NSR:Quay:108250,718
NSR:Quay:11533,Tråkka,59.945436,10.689826,NSR:Quay:11533,719
NSR:Quay:11530,Grimelundsveien,59.944763,10.692937,NSR:Quay:11530,356
NSR:Quay:11472,Viggo Hansteens vei,59.943309,10.698642,NSR:Quay:11472,74
NSR:Quay:11466,Vinderen T,59.942638,10.704082,NSR:Quay:11466,355
NSR:Quay:11443,Frøensalléen,59.935337,10.709776,NSR:Quay:11443,354
NSR:Quay:8077,Majorstuen,59.930466,10.714686,NSR:Quay:8077,47
NSR:Quay:12053,Sørenga,59.90387,10.758823,NSR:Quay:12053,479
NSR:Quay:12057,Loelva,59.895488,10.755953,NSR:Quay:12057,480
NSR:Quay:12259,Ormsundbakken,59.881685,10.770043,NSR:Quay:12259,481
NSR:Quay:12253,Mailand,59.880053,10.765279,NSR:Quay:12253,482
NSR:Quay:12248,Kirkebakken,59.878282,10.764056,NSR:Quay:12248,483
NSR:Quay:12244,Malmøysundet,59.874639,10.759821,NSR:Quay:12244,484
NSR:Quay:12240,Malmøya,59.873332,10.75811,NSR:Quay:12240,720
NSR:Quay:12243,Malmøysundet,59.874615,10.76003,NSR:Quay:12243,484
NSR:Quay:12247,Kirkebakken,59.878419,10.764289,NSR:Quay:12247,483
NSR:Quay:12254,Mailand,59.880079,10.765454,NSR:Quay:12254,482
NSR:Quay:12258,Ormsundbakken,59.881709,10.770324,NSR:Quay:12258,481
NSR:Quay:12214,Ulvøya,59.870342,10.77349,NSR:Quay:12214,485
NSR:Quay:10430,Mortensrud T,59.849466,10.829304,NSR:Quay:10430,288
NSR:Quay:10520,Mina Beiteplukks vei,59.831699,10.834083,NSR:Quay:10520,427
NSR:Quay:106018,Sommerro,59.82931,10.830309,NSR:Quay:106018,426
NSR:Quay:10708,Seterbråten,59.833174,10.827909,NSR:Quay:10708,425
NSR:Quay:109233,Nationaltheatret,59.913851,10.73412,NSR:Quay:109233,116
NSR:Quay:12115,Eirik Raudes vei,59.90226,10.79477,NSR:Quay:12115,721
NSR:Quay:10874,Furuveien,59.903009,10.802203,NSR:Quay:10874,722
NSR:Quay:10867,Manglerudveien,59.899814,10.803385,NSR:Quay:10867,154
NSR:Quay:10837,Ryenberget,59.897521,10.802551,NSR:Quay:10837,153
NSR:Quay:10833,Ryen T,59.895921,10.802538,NSR:Quay:10833,136
NSR:Quay:10839,Ryensvingen,59.894316,10.806011,NSR:Quay:10839,135
NSR:Quay:10847,Sandstuveien,59.891114,10.809833,NSR:Quay:10847,152
NSR:Quay:10796,Skullerud,59.866297,10.83981,NSR:Quay:10796,146
NSR:Quay:11009,Vetlandsveien,59.900159,10.846864,NSR:Quay:11009,486
NSR:Quay:10992,Oppsal kirke,59.900931,10.841913,NSR:Quay:10992,487
NSR:Quay:11003,Løypeveien,59.896345,10.841615,NSR:Quay:11003,464
NSR:Quay:10999,Oppsal senter,59.893061,10.840419,NSR:Quay:10999,463
NSR:Quay:10738,Ulsrudveien,59.892433,10.848852,NSR:Quay:10738,462
NSR:Quay:10753,Bøler T,59.883549,10.843039,NSR:Quay:10753,187
NSR:Quay:8128,Homansbyen,59.923525,10.727114,NSR:Quay:8128,96
NSR:Quay:12315,Siksakveien,59.854679,10.785492,NSR:Quay:12315,87
NSR:Quay:10537,Bjørndal,59.821369,10.839587,NSR:Quay:10537,329
NSR:Quay:10532,Meklenborg,59.824292,10.835526,NSR:Quay:10532,328
NSR:Quay:10528,Bjørndal senter,59.826313,10.835819,NSR:Quay:10528,327
NSR:Quay:12160,Engelsrud,59.973054,10.7643,NSR:Quay:12160,219
NSR:Quay:12163,Brennenga,59.977015,10.761369,NSR:Quay:12163,218
NSR:Quay:12168,Låkeberget,59.98002,10.757136,NSR:Quay:12168,217
NSR:Quay:12175,Skjerven,59.98618,10.752847,NSR:Quay:12175,216
NSR:Quay:12178,Saga,59.988601,10.753027,NSR:Quay:12178,215
NSR:Quay:12181,Hammeren,59.993982,10.75252,NSR:Quay:12181,214
NSR:Quay:12189,Kirkeby,59.996514,10.766264,NSR:Quay:12189,723
NSR:Quay:12192,Maridalen kirke,59.999759,10.771987,NSR:Quay:12192,724
NSR:Quay:12194,Velhuset,60.004892,10.773924,NSR:Quay:12194,725
NSR:Quay:12196,Hauger,60.008312,10.776156,NSR:Quay:12196,726
NSR:Quay:12201,Turterfaret,60.01343,10.77909,NSR:Quay:12201,727
NSR:Quay:12203,Brodin,60.016185,10.78247,NSR:Quay:12203,728
NSR:Quay:12205,Sandermosveien,60.019365,10.786509,NSR:Quay:12205,729
NSR:Quay:12229,Granum,60.021456,10.785385,NSR:Quay:12229,730
NSR:Quay:12226,Øvre Vaggestein,60.024006,10.784385,NSR:Quay:12226,731
NSR:Quay:12208,Skar,60.026691,10.779653,NSR:Quay:12208,213
NSR:Quay:12409,Hauketo stasjon,59.845743,10.803013,NSR:Quay:12409,202
NSR:Quay:12470,Berglyveien,59.828817,10.806585,NSR:Quay:12470,488
NSR:Quay:12473,Høgåsveien,59.830515,10.803595,NSR:Quay:12473,489
NSR:Quay:10411,Toppåsveien,59.828161,10.803855,NSR:Quay:10411,490
NSR:Quay:7639,Vippetangen,59.903186,10.741397,NSR:Quay:7639,491
NSR:Quay:102697,Oslo bussterminal,59.911556,10.762023,NSR:Quay:102697,1
NSR:Quay:11942,Norbygata,59.912875,10.764593,NSR:Quay:11942,392
NSR:Quay:11950,Tøyenkirken,59.91482,10.769246,NSR:Quay:11950,492
NSR:Quay:102997,Kampen,59.912295,10.779763,NSR:Quay:102997,493
NSR:Quay:12135,Kampen park,59.91441,10.781281,NSR:Quay:12135,494
NSR:Quay:11097,Ensjøveien,59.91668,10.78031,NSR:Quay:11097,495
NSR:Quay:11092,Tøyen stasjon,59.920186,10.781887,NSR:Quay:11092,732
NSR:Quay:11101,Hasle kirke,59.921751,10.78579,NSR:Quay:11101,496
NSR:Quay:11076,Hasle,59.92457,10.7934,NSR:Quay:11076,25
NSR:Quay:106830,Kabelgata,59.927082,10.811926,NSR:Quay:106830,733
NSR:Quay:10872,Nedre Risløkka,59.929806,10.811416,NSR:Quay:10872,497
NSR:Quay:10875,Rabbeveien,59.932023,10.813948,NSR:Quay:10875,734
NSR:Quay:10878,Anton Tschudis vei,59.935425,10.815552,NSR:Quay:10878,735
NSR:Quay:10894,Kroklia,59.937084,10.81961,NSR:Quay:10894,498
NSR:Quay:10898,Øvre Risløkka,59.938258,10.823596,NSR:Quay:10898,499
NSR:Quay:10902,Økernbråten,59.940025,10.825559,NSR:Quay:10902,385
NSR:Quay:10916,Linne hotell,59.939442,10.831023,NSR:Quay:10916,736
NSR:Quay:10911,Linderud T,59.941381,10.838632,NSR:Quay:10911,500
NSR:Quay:10946,Veitvetstubben,59.943714,10.841288,NSR:Quay:10946,501
NSR:Quay:11818,Skøyen stasjon,59.922313,10.679381,NSR:Quay:11818,251
NSR:Quay:12468,Trygve Strømbergs vei,59.82576,10.809431,NSR:Quay:12468,410
NSR:Quay:12465,Prinsdalsbakken,59.829129,10.808873,NSR:Quay:12465,409
NSR:Quay:12463,Prinsdal,59.834247,10.807495,NSR:Quay:12463,408
NSR:Quay:12417,Lerdal,59.837161,10.806706,NSR:Quay:12417,407
NSR:Quay:12416,Sveavegen,59.839856,10.805424,NSR:Quay:12416,406
NSR:Quay:12382,Kronveien,59.850036,10.797973,NSR:Quay:12382,405
NSR:Quay:12379,Ingiers vei,59.849381,10.788714,NSR:Quay:12379,404
NSR:Quay:12367,Sæter,59.861836,10.799689,NSR:Quay:12367,198
NSR:Quay:12337,Skovheim,59.865312,10.796133,NSR:Quay:12337,502
NSR:Quay:12338,Bråten,59.867042,10.793823,NSR:Quay:12338,503
NSR:Quay:12324,Kastellet,59.870105,10.791412,NSR:Quay:12324,504
NSR:Quay:12320,Sørli,59.875478,10.789551,NSR:Quay:12320,505
NSR:Quay:101886,Stortorvet,59.913131,10.745198,NSR:Quay:101886,506
NSR:Quay:101887,Tinghuset,59.915198,10.741324,NSR:Quay:101887,44
NSR:Quay:102838,Tullinløkka,59.916865,10.737178,NSR:Quay:102838,507
NSR:Quay:104059,Holbergs plass,59.918788,10.7346,NSR:Quay:104059,43
NSR:Quay:104068,Bislett,59.926067,10.731196,NSR:Quay:104068,41
NSR:Quay:104064,Stensgata,59.929617,10.733125,NSR:Quay:104064,334
NSR:Quay:11502,Adamstuen,59.932635,10.734903,NSR:Quay:11502,333
NSR:Quay:12188,Ryenbergveien,59.900866,10.785911,NSR:Quay:12188,307
NSR:Quay:12180,Simensbrekka,59.900796,10.782048,NSR:Quay:12180,737
NSR:Quay:12176,Utsikten,59.900463,10.778967,NSR:Quay:12176,306
NSR:Quay:12172,Brannfjellveien,59.900331,10.77332,NSR:Quay:12172,305
NSR:Quay:10501,Tangen,59.847823,10.810472,NSR:Quay:10501,508
NSR:Quay:10498,Kantarellen,59.849901,10.813425,NSR:Quay:10498,509
NSR:Quay:10490,Kantarellen terrasse,59.849246,10.814927,NSR:Quay:10490,510
NSR:Quay:10486,Kantarellen legesenter,59.848748,10.816585,NSR:Quay:10486,510
NSR:Quay:10482,Stenbråten,59.849397,10.824532,NSR:Quay:10482,511
NSR:Quay:12156,Tryvann,59.987825,10.666566,NSR:Quay:12156,512
NSR:Quay:109823,Frognerseteren,59.977753,10.674967,NSR:Quay:109823,513
NSR:Quay:11640,Thorleif Haugs vei,59.96998,10.669396,NSR:Quay:11640,514
NSR:Quay:11624,Soria Moria,59.97498,10.656738,NSR:Quay:11624,515
NSR:Quay:11628,Lysebu,59.979136,10.660936,NSR:Quay:11628,516
NSR:Quay:11631,Voksenkollen T,59.980073,10.664071,NSR:Quay:11631,517
NSR:Quay:12157,Tryvann,59.987763,10.666925,NSR:Quay:12157,512
NSR:Quay:12389,Olasrudveien,59.852739,10.827713,NSR:Quay:12389,518
NSR:Quay:12386,Granebakken,59.857215,10.824983,NSR:Quay:12386,519
NSR:Quay:12384,Maikollen,59.858433,10.824433,NSR:Quay:12384,738
NSR:Quay:10576,Jorines vei,59.953007,10.928304,NSR:Quay:10576,337
NSR:Quay:10570,Smiuvegen,59.953011,10.92368,NSR:Quay:10570,336
NSR:Quay:102518,Helsfyr T,59.912853,10.80238,NSR:Quay:102518,28
NSR:Quay:11110,Ensjø T,59.91499,10.78723,NSR:Quay:11110,412
NSR:Quay:11912,Tøyen skole,59.915101,10.773318,NSR:Quay:11912,411
NSR:Quay:10542,Langteigåsen,59.817894,10.839925,NSR:Quay:10542,403
NSR:Quay:10510,Bjørnholt nedre,59.836298,10.835473,NSR:Quay:10510,324
NSR:Quay:10456,Oredalen,59.83979,10.829502,NSR:Quay:10456,402
NSR:Quay:10460,Bjørnerud,59.844048,10.819111,NSR:Quay:10460,401
NSR:Quay:12407,Hauketo stasjon,59.846345,10.803281,NSR:Quay:12407,202
NSR:Quay:12431,Holmlia stasjon,59.834914,10.796653,NSR:Quay:12431,159
NSR:Quay:10991,Oppsal kirke,59.900775,10.842041,NSR:Quay:10991,487
NSR:Quay:11010,Vetlandsveien,59.900086,10.846781,NSR:Quay:11010,486
NSR:Quay:104177,Tveita T,59.913474,10.842189,NSR:Quay:104177,208
NSR:Quay:108486,Nåkkves vei,59.918281,10.846167,NSR:Quay:108486,388
NSR:Quay:110927,Knud Bryns vei,59.928447,10.823861,NSR:Quay:110927,387
NSR:Quay:10257,Nordre Hovin,59.931223,10.828646,NSR:Quay:10257,23
NSR:Quay:10922,Nedre Vollebekk,59.933725,10.827517,NSR:Quay:10922,386
NSR:Quay:10889,Vollebekkveien,59.936263,10.825911,NSR:Quay:10889,739
NSR:Quay:10993,Bjerkedalen park,59.940361,10.82229,NSR:Quay:10993,384
NSR:Quay:10990,Refstadsvingen,59.9418,10.816893,NSR:Quay:10990,383
NSR:Quay:10981,Travbanen,59.942246,10.811719,NSR:Quay:10981,56
NSR:Quay:11773,Sinsen T,59.938925,10.779557,NSR:Quay:11773,382
NSR:Quay:11503,Adamstuen,59.932748,10.734117,NSR:Quay:11503,333
NSR:Quay:11620,John Colletts plass,59.939943,10.729035,NSR:Quay:11620,332
NSR:Quay:109570,Universitetet Blindern,59.940731,10.721143,NSR:Quay:109570,331
NSR:Quay:105728,Forskningsparken T,59.944078,10.720741,NSR:Quay:105728,330
NSR:Quay:105731,Gaustadalléen,59.945584,10.717439,NSR:Quay:105731,58
NSR:Quay:10431,Mortensrud T,59.849305,10.829449,NSR:Quay:10431,288
NSR:Quay:10604,Dalssvingen,59.850255,10.837353,NSR:Quay:10604,366
NSR:Quay:10611,Dalsroa,59.848275,10.840625,NSR:Quay:10611,520
NSR:Quay:10613,Brenna,59.846399,10.84224,NSR:Quay:10613,521
NSR:Quay:10617,Bratli,59.844275,10.843659,NSR:Quay:10617,522
NSR:Quay:10623,Pasop,59.842368,10.846116,NSR:Quay:10623,523
NSR:Quay:12213,Ulvøya,59.870363,10.772939,NSR:Quay:12213,485
NSR:Quay:12058,Loelva,59.89554,10.756077,NSR:Quay:12058,480
NSR:Quay:12054,Sørenga,59.903761,10.75914,NSR:Quay:12054,479
NSR:Quay:7449,Nationaltheatret,59.913224,10.731475,NSR:Quay:7449,740
NSR:Quay:11255,Grefsen stadion,59.960079,10.785659,NSR:Quay:11255,98
NSR:Quay:11268,Lyngåsveien,59.956577,10.788424,NSR:Quay:11268,524
NSR:Quay:11272,Brannvaktveien,59.953573,10.792308,NSR:Quay:11272,274
NSR:Quay:11679,Arkitekt Rivertz plass,59.934085,10.750546,NSR:Quay:11679,235
NSR:Quay:11683,Vøyenbrua,59.932886,10.758364,NSR:Quay:11683,414
NSR:Quay:11739,Vogts gate,59.931604,10.763251,NSR:Quay:11739,413
NSR:Quay:10691,Blåfjellet,59.86952,10.814973,NSR:Quay:10691,194
NSR:Quay:10626,Karlsrud T,59.879756,10.805896,NSR:Quay:10626,230
NSR:Quay:12294,Brattlikollen T,59.886345,10.799931,NSR:Quay:12294,229
NSR:Quay:10458,Høybråten park,59.945862,10.933786,NSR:Quay:10458,321
NSR:Quay:10451,Vardeheim,59.944613,10.930353,NSR:Quay:10451,320
NSR:Quay:10448,Fjellborg,59.942606,10.932043,NSR:Quay:10448,319
NSR:Quay:10444,Granliveien,59.940454,10.928331,NSR:Quay:10444,318
NSR:Quay:10437,Karl Andersens vei,59.941656,10.925855,NSR:Quay:10437,317
NSR:Quay:10434,Bikuben,59.944358,10.924627,NSR:Quay:10434,316
NSR:Quay:10425,Solbakken,59.944409,10.916733,NSR:Quay:10425,315
NSR:Quay:10422,Høybråten kirke,59.944211,10.910955,NSR:Quay:10422,314
NSR:Quay:10413,Bjørnheim,59.942206,10.912868,NSR:Quay:10413,313
NSR:Quay:10724,Grorud T,59.960896,10.882875,NSR:Quay:10724,170
NSR:Quay:10695,Ammerud T,59.958161,10.870701,NSR:Quay:10695,741
NSR:Quay:10715,Ammerudlunden,59.960724,10.87223,NSR:Quay:10715,742
NSR:Quay:10700,Ammerudhellinga,59.962671,10.872514,NSR:Quay:10700,743
NSR:Quay:10705,Ammerud skole,59.964454,10.871787,NSR:Quay:10705,744
NSR:Quay:10707,Alundamveien,59.966449,10.870261,NSR:Quay:10707,745
NSR:Quay:10709,Breisjøgrenda,59.969003,10.871119,NSR:Quay:10709,746
NSR:Quay:10712,Huken,59.971602,10.874147,NSR:Quay:10712,747
NSR:Quay:10752,Lillomarka barnehage,59.97006,10.876832,NSR:Quay:10752,748
NSR:Quay:10751,Skogstad,59.967995,10.881953,NSR:Quay:10751,749
NSR:Quay:10748,Hagelundveien,59.965398,10.883471,NSR:Quay:10748,750
NSR:Quay:10743,Grorud senter,59.961709,10.882257,NSR:Quay:10743,170
NSR:Quay:105652,Makrellbekken,59.941768,10.672539,NSR:Quay:105652,525
NSR:Quay:104060,Homansbyen,59.922612,10.726588,NSR:Quay:104060,96
NSR:Quay:104053,Bogstadveien,59.926336,10.72143,NSR:Quay:104053,526
NSR:Quay:11648,Makrellbekken,59.941879,10.672636,NSR:Quay:11648,525
NSR:Quay:11735,Røa T,59.947897,10.642482,NSR:Quay:11735,78
NSR:Quay:11753,Ekraveien,59.951782,10.636533,NSR:Quay:11753,527
NSR:Quay:11025,Tonsenhagen,59.946393,10.828188,NSR:Quay:11025,268
NSR:Quay:10947,Veitvetstubben,59.943701,10.841709,NSR:Quay:10947,501
NSR:Quay:10912,Linderud T,59.941408,10.838463,NSR:Quay:10912,500
NSR:Quay:10915,Linne hotell,59.939993,10.828089,NSR:Quay:10915,751
NSR:Quay:10897,Øvre Risløkka,59.938053,10.823781,NSR:Quay:10897,499
NSR:Quay:10893,Kroklia,59.937131,10.819479,NSR:Quay:10893,498
NSR:Quay:10879,Lundliveien,59.935918,10.811333,NSR:Quay:10879,752
NSR:Quay:10846,Økern aldershjem,59.932511,10.808334,NSR:Quay:10846,753
NSR:Quay:10870,Nedre Risløkka,59.930178,10.811808,NSR:Quay:10870,497
NSR:Quay:11102,Hasle kirke,59.922137,10.786504,NSR:Quay:11102,496
NSR:Quay:11093,Tøyen stasjon,59.919246,10.780503,NSR:Quay:11093,754
NSR:Quay:11096,Ensjøveien,59.916872,10.780069,NSR:Quay:11096,495
NSR:Quay:12134,Kampen park,59.91484,10.781646,NSR:Quay:12134,494
NSR:Quay:12126,Kampen,59.912227,10.779634,NSR:Quay:12126,493
NSR:Quay:11951,Tøyenkirken,59.914805,10.769045,NSR:Quay:11951,492
NSR:Quay:11943,Norbygata,59.912922,10.764552,NSR:Quay:11943,392
NSR:Quay:102673,Oslo bussterminal,59.911558,10.761827,NSR:Quay:102673,1
NSR:Quay:7638,Vippetangen,59.903404,10.740485,NSR:Quay:7638,491
NSR:Quay:11632,Voksenkollen T,59.980181,10.663999,NSR:Quay:11632,517
NSR:Quay:11627,Lysebu,59.979194,10.660582,NSR:Quay:11627,516
NSR:Quay:11623,Soria Moria,59.97516,10.656768,NSR:Quay:11623,515
NSR:Quay:11639,Thorleif Haugs vei,59.969916,10.669505,NSR:Quay:11639,514
NSR:Quay:12146,Frognerseteren,59.977885,10.675833,NSR:Quay:12146,513
NSR:Quay:12231,Solemskogen,59.979269,10.817529,NSR:Quay:12231,353
NSR:Quay:12238,Kalland,59.978517,10.814321,NSR:Quay:12238,352
NSR:Quay:12241,Linderudkollen,59.976467,10.810926,NSR:Quay:12241,351
NSR:Quay:12245,Setervollveien,59.977301,10.807105,NSR:Quay:12245,350
NSR:Quay:12249,Kringlevann,59.976455,10.803629,NSR:Quay:12249,349
NSR:Quay:11233,Rundhaugen,59.968593,10.79576,NSR:Quay:11233,348
NSR:Quay:11229,Rønningen,59.966712,10.7955,NSR:Quay:11229,347
NSR:Quay:11224,Heia,59.964913,10.796176,NSR:Quay:11224,346
NSR:Quay:11221,Gulldalen,59.962594,10.795846,NSR:Quay:11221,345
NSR:Quay:11218,Kirketomta,59.960098,10.797423,NSR:Quay:11218,344
NSR:Quay:11214,Trollveiskrysset,59.958386,10.798107,NSR:Quay:11214,343
NSR:Quay:11208,Grefsenseteren,59.955343,10.798434,NSR:Quay:11208,342
NSR:Quay:11203,Akebakken,59.952541,10.796959,NSR:Quay:11203,341
NSR:Quay:11189,Sanatoriet,59.949575,10.792933,NSR:Quay:11189,340
NSR:Quay:11182,Aschehougs vei,59.946507,10.792581,NSR:Quay:11182,339
NSR:Quay:11180,Nordre Åsen,59.944237,10.786597,NSR:Quay:11180,338
NSR:Quay:11118,Storo,59.945465,10.777322,NSR:Quay:11118,64
NSR:Quay:11802,Storo senter,59.946477,10.774605,NSR:Quay:11802,755
NSR:Quay:10429,Mortensrud T,59.850042,10.828614,NSR:Quay:10429,288
NSR:Quay:10814,Skullerudkrysset,59.863437,10.83205,NSR:Quay:10814,287
NSR:Quay:10810,Skullerudbakken,59.863948,10.837334,NSR:Quay:10810,286
NSR:Quay:12404,Hauketo stasjon,59.845526,10.802878,NSR:Quay:12404,202
NSR:Quay:11345,Tåsen senter,59.951991,10.75068,NSR:Quay:11345,60
NSR:Quay:11332,Østhellinga,59.947215,10.749393,NSR:Quay:11332,311
NSR:Quay:11337,Tåsen allé,59.944156,10.748223,NSR:Quay:11337,310
NSR:Quay:11699,Voldsløkka,59.940419,10.750042,NSR:Quay:11699,309
NSR:Quay:11693,Sagene,59.937846,10.749832,NSR:Quay:11693,50
NSR:Quay:12166,Ekeberg camping,59.898082,10.776486,NSR:Quay:12166,304
NSR:Quay:12282,Ekeberg hageby,59.897467,10.781214,NSR:Quay:12282,303
NSR:Quay:12265,Simensbråten,59.895234,10.786713,NSR:Quay:12265,139
NSR:Quay:111029,Fjellstuveien,59.950537,10.938571,NSR:Quay:111029,164
NSR:Quay:10600,Engersbråten,59.814415,10.882553,NSR:Quay:10600,528
NSR:Quay:10595,Sværsvann,59.818428,10.887516,NSR:Quay:10595,478
NSR:Quay:10587,Lille Stensrud,59.819958,10.876513,NSR:Quay:10587,477
NSR:Quay:10583,Hanåveien,59.824042,10.871833,NSR:Quay:10583,476
NSR:Quay:10577,Store Stensrud,59.828749,10.866412,NSR:Quay:10577,475
NSR:Quay:10573,Godheim,59.832895,10.860656,NSR:Quay:10573,474
NSR:Quay:10568,Maurtuveien,59.832375,10.851292,NSR:Quay:10568,473
NSR:Quay:10563,Klemetsrud skole,59.834374,10.843492,NSR:Quay:10563,472
NSR:Quay:12439,Sloreåsen,59.842369,10.794953,NSR:Quay:12439,471
NSR:Quay:111028,Fjellstuveien,59.95046,10.937916,NSR:Quay:111028,164
NSR:Quay:10624,Pasop,59.842292,10.846108,NSR:Quay:10624,523
NSR:Quay:10616,Bratli,59.844521,10.843712,NSR:Quay:10616,522
NSR:Quay:10614,Brenna,59.846456,10.842299,NSR:Quay:10614,521
NSR:Quay:10610,Dalsroa,59.848214,10.840043,NSR:Quay:10610,520
NSR:Quay:10605,Dalssvingen,59.850255,10.837484,NSR:Quay:10605,366
NSR:Quay:10483,Stenbråten,59.84977,10.825286,NSR:Quay:10483,511
NSR:Quay:10487,Kantarellen legesenter,59.848709,10.816273,NSR:Quay:10487,510
NSR:Quay:10491,Kantarellen terrasse,59.848843,10.814677,NSR:Quay:10491,510
NSR:Quay:10497,Kantarellen,59.85017,10.812427,NSR:Quay:10497,509
NSR:Quay:10502,Tangen,59.84772,10.810292,NSR:Quay:10502,508
NSR:Quay:10414,Nordbråtan,59.825056,10.80474,NSR:Quay:10414,756
NSR:Quay:10410,Toppåsveien,59.828018,10.803975,NSR:Quay:10410,490
NSR:Quay:12472,Høgåsveien,59.830939,10.80357,NSR:Quay:12472,489
NSR:Quay:12471,Berglyveien,59.828812,10.806301,NSR:Quay:12471,488
NSR:Quay:104023,Jernbanetorget,59.912322,10.749658,NSR:Quay:104023,45
NSR:Quay:11402,Ole Messelts vei,59.924678,10.872243,NSR:Quay:11402,212
NSR:Quay:11396,Lutvannsveien,59.92577,10.872852,NSR:Quay:11396,212
NSR:Quay:11392,Lutvann skole,59.925786,10.869596,NSR:Quay:11392,211
NSR:Quay:11386,Fagerholt,59.923514,10.867584,NSR:Quay:11386,210
NSR:Quay:11383,Haukåsen skole,59.922356,10.863639,NSR:Quay:11383,209
NSR:Quay:11312,Tveita T,59.913964,10.8425,NSR:Quay:11312,208
NSR:Quay:11271,Brannvaktveien,59.953661,10.792447,NSR:Quay:11271,274
NSR:Quay:11267,Lyngåsveien,59.956188,10.788979,NSR:Quay:11267,524
NSR:Quay:111061,Grefsen stadion,59.960117,10.785323,NSR:Quay:111061,98
NSR:Quay:104659,Majorstuen,59.930364,10.715889,NSR:Quay:104659,47
NSR:Quay:109824,Frognerseteren,59.977729,10.675192,NSR:Quay:109824,513
NSR:Quay:12257,Trollvann,59.961656,10.803206,NSR:Quay:12257,529
NSR:Quay:12255,Grefsenkollen,59.958694,10.804093,NSR:Quay:12255,757
NSR:Quay:10900,Rognerud,59.901735,10.825119,NSR:Quay:10900,469
NSR:Quay:10987,Østensjø skole,59.899448,10.832568,NSR:Quay:10987,468
NSR:Quay:10958,Skøyenåsen T,59.900511,10.836637,NSR:Quay:10958,467
NSR:Quay:10963,Skøyenkroken,59.897597,10.838428,NSR:Quay:10963,466
NSR:Quay:10720,Ulsrud T,59.88965,10.849138,NSR:Quay:10720,461
NSR:Quay:10730,Østbyveien,59.888806,10.843082,NSR:Quay:10730,460
NSR:Quay:10732,Jøranstien,59.888423,10.836213,NSR:Quay:10732,459
NSR:Quay:10934,Bogerudmyra,59.881813,10.833515,NSR:Quay:10934,458
NSR:Quay:10914,Treskeveien,59.889084,10.81802,NSR:Quay:10914,457
NSR:Quay:10907,Skuronnveien,59.892059,10.821871,NSR:Quay:10907,456
NSR:Quay:10904,Manglerud skole,59.894693,10.820782,NSR:Quay:10904,455
NSR:Quay:10860,Manglerud senter,59.896989,10.814559,NSR:Quay:10860,454
NSR:Quay:12064,Wyllerløypa,59.990368,10.631306,NSR:Quay:12064,758
NSR:Quay:12147,Frognerseteren,59.977863,10.67553,NSR:Quay:12147,513
NSR:Quay:10264,Postens godssenter,59.934063,10.851735,NSR:Quay:10264,530
NSR:Quay:10259,Postnord,59.934337,10.848076,NSR:Quay:10259,531
NSR:Quay:11469,Postens verksteder,59.9321,10.844193,NSR:Quay:11469,532
NSR:Quay:12030,Åsjordet T,59.928471,10.646023,NSR:Quay:12030,470
NSR:Quay:10338,Edvard Munchs vei,59.938927,10.911108,NSR:Quay:10338,533
NSR:Quay:10335,Ellingsrudåsen T,59.936638,10.9171,NSR:Quay:10335,534
NSR:Quay:12118,Skansebakken,60.017975,10.584163,NSR:Quay:12118,452
NSR:Quay:12122,Sandbråten,60.018379,10.586741,NSR:Quay:12122,451
NSR:Quay:12111,Vestre Venner,60.017869,10.59103,NSR:Quay:12111,450
NSR:Quay:12124,Nordre Venner,60.017924,10.595493,NSR:Quay:12124,449
NSR:Quay:12129,Søndre Venner,60.017386,10.598526,NSR:Quay:12129,448
NSR:Quay:12133,Lokalet,60.01662,10.603298,NSR:Quay:12133,447
NSR:Quay:12136,Sørkedalen skole,60.01699,10.61161,NSR:Quay:12136,446
NSR:Quay:12142,Stubberud,60.013147,10.616059,NSR:Quay:12142,445
NSR:Quay:12103,Nordre Solberg,60.007808,10.619139,NSR:Quay:12103,444
NSR:Quay:12098,Søndre Solberg,59.999224,10.619501,NSR:Quay:12098,443
NSR:Quay:12096,Bakk,59.993443,10.622328,NSR:Quay:12096,442
NSR:Quay:12068,Wyllerveien,59.99052,10.622012,NSR:Quay:12068,759
NSR:Quay:12090,Årnes,59.988067,10.620467,NSR:Quay:12090,441
NSR:Quay:12107,Bjørnsgard,59.985866,10.621432,NSR:Quay:12107,440
NSR:Quay:12085,Zinober,59.983274,10.621556,NSR:Quay:12085,439
NSR:Quay:12082,Strøm,59.979354,10.621491,NSR:Quay:12082,760
NSR:Quay:12077,Bogstad gård,59.97296,10.628618,NSR:Quay:12077,438
NSR:Quay:12074,Bogstad badeplass,59.96937,10.638231,NSR:Quay:12074,437
NSR:Quay:101620,Sognsvann T,59.967239,10.733168,NSR:Quay:101620,145
NSR:Quay:11405,Kringsjå,59.964062,10.734187,NSR:Quay:11405,144
NSR:Quay:11358,Haugerudveien,59.917363,10.851054,NSR:Quay:11358,418
NSR:Quay:11419,Rundtjernveien,59.915522,10.850673,NSR:Quay:11419,416
NSR:Quay:110913,Postkassene,59.911913,10.850873,NSR:Quay:110913,415
NSR:Quay:11962,Oslo bussterminal,59.911348,10.759298,NSR:Quay:11962,1
NSR:Quay:10334,Ellingsrudåsen T,59.936482,10.917183,NSR:Quay:10334,534
NSR:Quay:10339,Edvard Munchs vei,59.93898,10.910931,NSR:Quay:10339,533
NSR:Quay:10594,Sværsvann,59.818358,10.887336,NSR:Quay:10594,478
NSR:Quay:10601,Engersbråten,59.813786,10.882071,NSR:Quay:10601,528
NSR:Quay:11145,Helsfyr T,59.912651,10.801143,NSR:Quay:11145,28
NSR:Quay:104052,Bogstadveien,59.926119,10.721605,NSR:Quay:104052,526
NSR:Quay:104061,Homansbyen,59.92252,10.726503,NSR:Quay:104061,96
NSR:Quay:102839,Tullinløkka,59.916767,10.737272,NSR:Quay:102839,507
NSR:Quay:106026,Stortorvet,59.912826,10.745675,NSR:Quay:106026,506
NSR:Quay:104022,Jernbanetorget,59.912237,10.750119,NSR:Quay:104022,45
NSR:Quay:106761,Nybrua,59.917224,10.758601,NSR:Quay:106761,433
NSR:Quay:104021,Biermanns gate,59.930173,10.76113,NSR:Quay:104021,432
NSR:Quay:104018,Torshov,59.934749,10.764764,NSR:Quay:104018,52
NSR:Quay:10824,Ryen T,59.895371,10.80437,NSR:Quay:10824,135
NSR:Quay:10635,Lambertseter T,59.873488,10.81011,NSR:Quay:10635,193
NSR:Quay:10649,Søndre Hellerud,59.871609,10.805217,NSR:Quay:10649,373
NSR:Quay:12329,Ringshusveien,59.871923,10.800121,NSR:Quay:12329,535
NSR:Quay:12327,Nordseter gård,59.871015,10.796406,NSR:Quay:12327,536
NSR:Quay:12325,Kastellet,59.870089,10.791222,NSR:Quay:12325,504
NSR:Quay:12339,Bråten,59.866903,10.793799,NSR:Quay:12339,503
NSR:Quay:12336,Skovheim,59.86522,10.796039,NSR:Quay:12336,502
NSR:Quay:12366,Sæter,59.861244,10.800073,NSR:Quay:12366,198
NSR:Quay:10637,Lambertseter T,59.873459,10.810517,NSR:Quay:10637,193
NSR:Quay:10566,Haugenstua skole,59.952559,10.92177,NSR:Quay:10566,761
NSR:Quay:10521,Jacobine Ryes vei,59.96627,10.918887,NSR:Quay:10521,537
NSR:Quay:10517,Gullberget,59.968551,10.922682,NSR:Quay:10517,538
NSR:Quay:10514,Vestli T,59.971295,10.928374,NSR:Quay:10514,762
NSR:Quay:11186,Brynseng T,59.909466,10.813707,NSR:Quay:11186,132
NSR:Quay:10725,Grorud T,59.960751,10.882883,NSR:Quay:10725,170
NSR:Quay:10740,Grorudkrysset,59.959302,10.885971,NSR:Quay:10740,7
NSR:Quay:12256,Trollvann,59.96153,10.803337,NSR:Quay:12256,529
NSR:Quay:11754,Ekraveien,59.951545,10.636595,NSR:Quay:11754,527
NSR:Quay:11736,Røa T,59.947799,10.642456,NSR:Quay:11736,78
NSR:Quay:10706,Nylænde,59.875714,10.819446,NSR:Quay:10706,763
NSR:Quay:10704,Marmorveien,59.874549,10.821651,NSR:Quay:10704,764
NSR:Quay:10699,Feltspatveien,59.873058,10.820645,NSR:Quay:10699,765
NSR:Quay:10696,Glimmerveien,59.870364,10.820455,NSR:Quay:10696,766
NSR:Quay:10694,Mellombølgen,59.869902,10.815431,NSR:Quay:10694,194
NSR:Quay:104042,Frogner plass,59.921771,10.705364,NSR:Quay:104042,248
NSR:Quay:104038,Elisenberg,59.919402,10.708781,NSR:Quay:104038,436
NSR:Quay:104037,Lille Frogner allé,59.917866,10.712225,NSR:Quay:104037,435
NSR:Quay:104032,Niels Juels gate,59.91633,10.714974,NSR:Quay:104032,434
NSR:Quay:10826,Ryen T,59.896336,10.804804,NSR:Quay:10826,767
NSR:Quay:12405,Hauketo stasjon,59.845515,10.803382,NSR:Quay:12405,202
NSR:Quay:12385,Granebakken,59.857108,10.825127,NSR:Quay:12385,519
NSR:Quay:12390,Olasrudveien,59.852209,10.82771,NSR:Quay:12390,518
NSR:Quay:10518,Gullberget,59.96868,10.922446,NSR:Quay:10518,538
NSR:Quay:10522,Jacobine Ryes vei,59.966249,10.918694,NSR:Quay:10522,537
NSR:Quay:10565,Haugenstua skole,59.953933,10.922191,NSR:Quay:10565,768
NSR:Quay:12321,Sørli,59.875182,10.789567,NSR:Quay:12321,505
NSR:Quay:11985,Oslo bussterminal,59.912004,10.756997,NSR:Quay:11985,1
NSR:Quay:10977,Persveien,59.922954,10.816316,NSR:Quay:10977,389
NSR:Quay:10973,Haraldrudveien,59.924407,10.825712,NSR:Quay:10973,390
NSR:Quay:11468,Arvesetveien,59.928772,10.847046,NSR:Quay:11468,21
NSR:Quay:11470,Postens verksteder,59.931471,10.844514,NSR:Quay:11470,532
NSR:Quay:10260,Postnord,59.934531,10.848712,NSR:Quay:10260,531
NSR:Quay:10263,Postens godssenter,59.934393,10.850949,NSR:Quay:10263,530
NSR:Quay:12449,Nordåsveien,59.829719,10.794121,NSR:Quay:12449,203
NSR:Quay:11450,Steinerud T,59.939148,10.704557,NSR:Quay:11450,769
NSR:Quay:11473,Vinderen T,59.942864,10.705353,NSR:Quay:11473,355
NSR:Quay:11482,Gaustad T,59.946464,10.710905,NSR:Quay:11482,73
NSR:Quay:11511,Ris T,59.948389,10.704066,NSR:Quay:11511,539
NSR:Quay:11522,Slemdal T,59.951158,10.69384,NSR:Quay:11522,540
